RouteKey,VariantNumber,stationCode,stationName,condition,stopCategory,streetName,AddressNo,hasRamp,hasWheelChair,Lat,Lng
20_1,39,BX41,Bến xe An Sương,Đang khai thác,Bến xe,Quốc lộ 22,Bến xe An Sương,Yes,Yes,10.843737602234,106.61337280273
20_1,39,Q12 122,Bến xe An Sương,Đang khai thác,Trụ dừng,Quốc lộ 22,116,No,No,10.844971,106.614026
20_1,39,Q12 125,Cây xăng Quân Đội,Đang khai thác,Trụ dừng,Quốc lộ 22,2,No,No,10.850034,106.610845
20_1,39,Q12 127,Trung tâm văn hóa Quận 12,Đang khai thác,Nhà chờ,Quốc lộ 22,Trung tâm văn hóa Quận 12,No,No,10.85466,106.607863
20_1,39,HHM 022,Liên đoàn lao động Hóc Môn,Đang khai thác,Trụ dừng,Quốc lộ 22,69/1,No,No,10.855756,106.607198
20_1,39,HHM 023,Cây xăng Củ Cải,Đang khai thác,Trụ dừng,Quốc lộ 22,33/4,No,No,10.859054,106.604869
20_1,39,HHM 025,Ngã 3 Củ Cải,Đang khai thác,Trụ dừng,Quốc lộ 22,8/6B,No,No,10.861856,106.602844
20_1,39,HHM 024,Trường học Tân Xuân,Đang khai thác,Trụ dừng,Quốc lộ 22,44A,No,No,10.865945,106.599972
20_1,39,HHM 026,Ngã 3 Bùi Môn,Đang khai thác,Trụ dừng,Quốc lộ 22,1/1,No,No,10.869901,106.597206
20_1,39,HHM 027,Ngã 3 Bùi Môn,Đang khai thác,Trụ dừng,Quốc lộ 22,3/19,No,No,10.875053,106.593626
20_1,39,HHM 028,Cây xăng Thành Công - Ngã tư Giếng Nước,Đang khai thác,Trụ dừng,Quốc lộ 22,3/88C,No,No,10.877482,106.591748
20_1,39,HHM 029,Ngã tư Giếng nước,Tạm ngưng khai thác,Trụ dừng,Quốc lộ 22,2/16A,No,No,10.87765,106.591598
20_1,39,HHM 001,Ngã tư Giếng nước,Chưa khai thác,Trụ dừng,Bà Triệu,3/88C,No,No,10.87803,106.591882
20_1,39,HHM 002,Bệnh viện Hóc Môn,Đang khai thác,Trụ dừng,Bà Triệu,77/4,No,No,10.88226,106.594098
20_1,39,HHM 003,Trường mầm non 23-11,Đang khai thác,Trụ dừng,Bà Triệu,84/2A,No,No,10.884952,106.595213
20_1,39,HHM 004,Thị trấn Hóc Môn,Đang khai thác,Ô sơn,Bà Triệu,98/2,No,No,10.887902,106.596238
20_1,39,HHM001,Chợ Hóc Môn,Đang khai thác,Trụ dừng,Trương Nữ Vương,8/2,No,No,10.890441,106.596673
20_1,39,HHM002,Nhà trẻ Phước An,Đang khai thác,Trụ dừng,Trương Nữ Vương,21/1,No,No,10.892601,106.597268
20_1,39,HHM005,Nhà văn hóa Thiếu nhi huyện Hóc Môn,Đang khai thác,Trụ dừng,Đỗ Văn Dậy,Đối diện 15,No,No,10.89583,106.598454
20_1,39,HHM 114,Ngã 3 Cây Dông,Đang khai thác,Trụ dừng,Đỗ Văn Dậy,25/2,No,No,10.895914,106.598861
20_1,39,HHM 115,Trung tâm dạy nghề Hóc Môn,Đang khai thác,Trụ dừng,Đỗ Văn Dậy,27/6C,No,No,10.899265,106.600151
20_1,39,HHM 116,Công ty Nam Ho,Đang khai thác,Trụ dừng,Đỗ Văn Dậy,1/3B,No,No,10.905169,106.599741
20_1,39,HHM 117,Ngã 3 Ông Trác,Đang khai thác,Trụ dừng,Đỗ Văn Dậy,10/4,No,No,10.912012,106.600095
20_1,39,HHM 118,Cây xăng Tài Lộc 3,Đang khai thác,Trụ dừng,Đỗ Văn Dậy,98,No,No,10.917147,106.600497
20_1,39,HCC 251,Ngã 3 Bình Mỹ,Đang khai thác,Trụ dừng,Tỉnh lộ 15 Củ Chi,Đối diện 19/4C (Cây xăng Đại Phát Tài),No,No,10.92135,106.600777
20_1,39,QCCT057,Trường mẫu giáo Tân Thạnh Đông,Đang khai thác,Trụ dừng,Tỉnh lộ 15 Củ Chi,218 (Trường mẫu giáo Bông Sen 15),No,No,10.943817138672,106.60494995117
20_1,39,HCC 253,Chợ Sáng,Đang khai thác,Trụ dừng,Tỉnh lộ 15 Củ Chi,Giáo xứ Tân Thạnh Đông,No,No,10.9484,106.605347
20_1,39,HCC 254,Quán Hoa Sứ,Đang khai thác,Trụ dừng,Tỉnh lộ 15 Củ Chi,318,No,No,10.952317,106.602753
20_1,39,HCC 255,San banh,Đang khai thác,Trụ dừng,Tỉnh lộ 15 Củ Chi,422,No,No,10.955767,106.600517
20_1,39,HCC 256,UBND Tân Thạnh Đông,Đang khai thác,Trụ dừng,Tỉnh lộ 15 Củ Chi,542A (544A),No,No,10.961517,106.59608
20_1,39,QCCT062,Cây xăng 57,Đang khai thác,Trụ dừng,Tỉnh lộ 15 Củ Chi,604A,No,No,10.964282989502,106.59353637695
20_1,39,QCCT063,Chợ Hố Bom,Đang khai thác,Trụ dừng,Tỉnh lộ 15 Củ Chi,634B,No,No,10.966300010681,106.5916519165
20_1,39,QCCT064,Trường cấp 2 Tân Thạnh Đông,Đang khai thác,Trụ dừng,Tỉnh lộ 15 Củ Chi,718 (706),No,No,10.969499588013,106.58865356445
20_1,39,QCCT065,Cửa hàng sữa Việt Xuân,Đang khai thác,Trụ dừng,Tỉnh lộ 15 Củ Chi,806,No,No,10.973816871643,106.58460235596
20_1,39,QCCT066,Cây xăng Quang Vinh,Đang khai thác,Trụ dừng,Tỉnh lộ 15 Củ Chi,858,No,No,10.976567268372,106.58201599121
20_1,39,QCCT067,Công ty Hongwon,Đang khai thác,Trụ dừng,Tỉnh lộ 15 Củ Chi,930,No,No,10.980067253113,106.57872009277
20_1,39,QCCT068,Ngã tư Tân Quy,Đang khai thác,Trụ dừng,Tỉnh lộ 15 Củ Chi,964 (970),No,No,10.982236862183,106.57717895508
20_1,39,BX 62,Bến xe Tân Quy,Đang khai thác,Bến xe,"Tỉnh lộ 8, Củ Chi",Bến xe Tân Quy,Yes,Yes,10.984251,106.578176
20_1,40,BX 62,Bến xe Tân Quy,Đang khai thác,Bến xe,"Tỉnh lộ 8, Củ Chi",Bến xe Tân Quy,Yes,Yes,10.984251,106.578176
20_1,40,QCCT136,Ngã tư Tân Quy,Đang khai thác,Trụ dừng,Tỉnh lộ 15 Củ Chi,121 (Kế 113),No,No,10.982632637024,106.57688140869
20_1,40,QCCT137,Công ty Hongwon,Đang khai thác,Trụ dừng,Tỉnh lộ 15 Củ Chi,33 (37),No,No,10.979332923889,106.57929992676
20_1,40,QCCT138,Cây xăng Quang Vinh,Đang khai thác,Trụ dừng,Tỉnh lộ 15 Củ Chi,715,No,No,10.976050376892,106.58238220215
20_1,40,QCCT139,Cửa hàng sữa Việt Xuân,Đang khai thác,Trụ dừng,Tỉnh lộ 15 Củ Chi,655,No,No,10.973317146301,106.58495330811
20_1,40,QCCT140,Trường cấp 2 Tân Thạnh Đông,Đang khai thác,Trụ dừng,Tỉnh lộ 15 Củ Chi,595-597,No,No,10.969300270081,106.5887298584
20_1,40,QCCT141,Miếu Bà Chúa Xứ,Đang khai thác,Trụ dừng,Tỉnh lộ 15 Củ Chi,565C (Đối diện 640A),No,No,10.966816902161,106.59104919434
20_1,40,QCCT142,Cây xăng 57,Đang khai thác,Trụ dừng,Tỉnh lộ 15 Củ Chi,509 (Đối diện 594C),No,No,10.963883399963,106.59383392334
20_1,40,HCC 151,Chợ Chiều,Đang khai thác,Ô sơn,Tỉnh lộ 15 Củ Chi,455-457,No,No,10.961017,106.596382
20_1,40,QCCT144,Sân banh,Đang khai thác,Trụ dừng,Tỉnh lộ 15 Củ Chi,369,No,No,10.955200195312,106.60081481934
20_1,40,QCCT145,Quán Hoa Sứ,Đang khai thác,Trụ dừng,Tỉnh lộ 15 Củ Chi,301 (309),No,No,10.952767372131,106.60238647461
20_1,40,QCCT146,Chợ Sáng,Đang khai thác,Trụ dừng,Tỉnh lộ 15 Củ Chi,195 (Đối diện giáo xứ Tân Thạnh Đông),No,No,10.948100090027,106.60545349121
20_1,40,QCCT147,Mẫu giáo Tân Thạnh Đông,Đang khai thác,Trụ dừng,Tỉnh lộ 15 Củ Chi,163 (165B),No,No,10.944800376892,106.60528564453
20_1,40,QCCT148,Ngã 3 Bình Mỹ,Đang khai thác,Trụ dừng,Tỉnh lộ 15 Củ Chi,19/4C,No,No,10.921882629395,106.6008682251
20_1,40,HHM 119,Cây xăng Tài Lộc 3,Đang khai thác,Trụ dừng,Đỗ Văn Dậy,22/3A,No,No,10.916642,106.600326
20_1,40,HHM 120,Ngã 3 Ông Trác,Đang khai thác,Trụ dừng,Đỗ Văn Dậy,59,No,No,10.912686,106.599956
20_1,40,HHM 121,Công ty Nam Ho,Đang khai thác,Trụ dừng,Đỗ Văn Dậy,6/9C,No,No,10.910295,106.599612
20_1,40,HHM 122,Cầu Bến Nọc,Đang khai thác,Trụ dừng,Đỗ Văn Dậy,146/3,No,No,10.908756,106.599526
20_1,40,HHM 123,Ngã 3 Cây Dông,Đang khai thác,Trụ dừng,Đỗ Văn Dậy,88/3,No,No,10.906502,106.599494
20_1,40,HHM 124,Trung tâm GDTX Hóc Môn,Đang khai thác,Trụ dừng,Đỗ Văn Dậy,69/1D,No,No,10.903394,106.599462
20_1,40,HHM003,Nhà trẻ Phước An,Đang khai thác,Trụ dừng,Trương Nữ Vương,49/2,No,No,10.893312,106.597397
20_1,40,HHM004,Chợ Hóc Môn,Đang khai thác,Ô sơn,Trương Nữ Vương,29/2A,No,No,10.890146,106.596512
20_1,40,HHM 005,Thị trần Hóc Môn,Chưa khai thác,Trụ dừng,Bà Triệu,45/4,No,No,10.887738,106.596093
20_1,40,HHM 197,Phan Văn Hớn,Đang khai thác,Trụ dừng,Phan Văn Hớn,36/5,No,No,10.850861,106.586051
20_1,40,HHM 006,Mần non 23-11,Đang khai thác,Trụ dừng,Bà Triệu,24,No,No,10.884699,106.594945
20_1,40,HHM 007,Bệnh viện Hóc Môn,Chưa khai thác,Trụ dừng,Bà Triệu,Đối diện 1/11A,No,No,10.881786,106.593733
20_1,40,HHM 198,Phan Văn Hớn,Đang khai thác,Trụ dừng,Phan Văn Hớn,99A,No,No,10.84692,106.591072
20_1,40,HHM 008,Ngã tư Giếng Nước,Đang khai thác,Trụ dừng,Bà Triệu,106,No,No,10.878356,106.592054
20_1,40,HHM 048,Cây xăng Thành Công - Ngã tư giếng nước,Đang khai thác,Trụ dừng,Quốc lộ 22,Cây xăng Thành Công,No,No,10.877018,106.591635
20_1,40,HHM 049,Miểu Con Mèo,Đang khai thác,Trụ dừng,Quốc lộ 22,42/7B,No,No,10.871902,106.595306
20_1,40,HHM 050,Ngã 3 Bùi Môn,Đang khai thác,Trụ dừng,Quốc lộ 22,43/1,No,No,10.869901,106.596764
20_1,40,HHM 051,Trường học Tân Xuân,Đang khai thác,Trụ dừng,Quốc lộ 22,58/6,No,No,10.865924,106.599602
20_1,40,HHM 052,Xí nghiệp phân bón Hóc Môn,Đang khai thác,Trụ dừng,Quốc lộ 22,114,No,No,10.86252,106.602005
20_1,40,HHM 053,Ngã 3 Củ Cải,Đang khai thác,Nhà chờ,Quốc lộ 22,13/1,No,No,10.860471,106.603378
20_1,40,HHM 054,Ngã ba Nguyễn Thị Sóc,Đang khai thác,Nhà chờ,Quốc lộ 22,43/5,No,No,10.857373,106.605669
20_1,40,HHM 055,Chùa Linh Sơn,Đang khai thác,Trụ dừng,Quốc lộ 22,G68A,No,No,10.85554,106.606779
20_1,40,HHM 056,Ngã tư Nguyễn Ảnh Thủ,Đang khai thác,Nhà chờ,Quốc lộ 22,30/10B,No,No,10.854628,106.607476
20_1,40,QHMT229,Trung tâm văn hóa Quận 12 - Ngã 4 Trung Chánh,Đang khai thác,Nhà chờ,Quốc lộ 22,Quán ăn xuyên Á,No,No,10.853538,106.608179
20_1,40,HHM 057,Cư xá Bà Điểm,Đang khai thác,Nhà chờ,Quốc lộ 22,3A,No,No,10.850092,106.610395
20_1,40,HHM 058,Bến xe An Sương,Đang khai thác,Trụ dừng,Quốc lộ 22,1B,No,No,10.845124,106.61356
20_1,40,BX41,Bến xe An Sương,Đang khai thác,Bến xe,Quốc lộ 22,Bến xe An Sương,Yes,Yes,10.843737602234,106.61337280273
7_1,13,BX14,Bến xe Chợ Lớn,Đang khai thác,Bến xe,Lê Quang Sung,GA HKXB CHO LON,Yes,Yes,10.751253128052,106.65256500244
7_1,13,Q6 095,Chu Văn An,Đang khai thác,Trụ dừng,Tháp Mười,27,No,No,10.750232,106.652554
7_1,13,Q6 096,Tháp Mười,Đang khai thác,Trụ dừng,Tháp Mười,13C-13D,No,No,10.750326,106.653036
7_1,13,Q5 016,Chợ Kim Biên,Đang khai thác,Trụ dừng,Hải Thượng Lãn Ông,11-12,No,No,10.750732,106.655075
7_1,13,Q5 011,Bưu điện Quận 5,Đang khai thác,Biển treo,Châu Văn Liêm,14-16,No,No,10.751368,106.659203
7_1,13,Q5 012,Rạp Đại Quang,Đang khai thác,Nhà chờ,Châu Văn Liêm,68,No,No,10.752566,106.658937
7_1,13,Q5 025,Bệnh viện Chợ Rẫy,Đang khai thác,Trụ dừng,Hồng Bàng,357-359,No,No,10.754553,106.659232
7_1,13,Q5 026,Đại học Y Dược,Đang khai thác,Nhà chờ,Hồng Bàng,217,No,No,10.75536,106.663191
7_1,13,Q5 027,Bệnh viện Đại học Y Dược,Đang khai thác,Nhà chờ,Hồng Bàng,215,No,No,10.755671,106.664683
7_1,13,Q5 068,Công viên Văn Lang,Đang khai thác,Trụ dừng,Nguyễn Tri Phương,132A,No,No,10.757151,106.669613
7_1,13,Q5 069,Trường Trần Khai Nguyên,Đang khai thác,Ô sơn,Nguyễn Tri Phương,138G-138F,No,No,10.758706,106.66928
7_1,13,Q10 071,Đại học kinh tế,Đang khai thác,Ô sơn,Nguyễn Tri Phương,234-236,No,No,10.761386,106.668564
7_1,13,Q10 072,Trường Hoàng Văn Thụ,Đang khai thác,Nhà chờ,Nguyễn Tri Phương,336,No,No,10.763073,106.668213
7_1,13,Q10 073,Chợ Nhật Tảo,Đang khai thác,Trụ dừng,Nguyễn Tri Phương,426,No,No,10.765397,106.667702
7_1,13,Q10 074,Học viện quân y,Đang khai thác,Trụ dừng,Nguyễn Tri Phương,476,No,No,10.767052,106.667313
7_1,13,Q10 011,Bệnh viện nhi đồng,Đang khai thác,Nhà chờ,Đường 3/2,Đối diện 350,No,No,10.769518,106.670609
7_1,13,Q10 012,Nhà thờ Vinh Sơn,Đang khai thác,Trụ dừng,Đường 3/2,273-275,No,No,10.770269,106.672166
7_1,13,Q10 013,Nhà hát Hòa Bình,Đang khai thác,Trụ dừng,Đường 3/2,183A-183B,No,No,10.771855,106.674805
7_1,13,Q10 014,Học viện hành chính quốc gia,Đang khai thác,Trụ dừng,Đường 3/2,113,No,No,10.77323,106.677015
7_1,13,Q10 015,BV Bình Dân,Đang khai thác,Trụ dừng,Đường 3/2,51,No,No,10.774421,106.67885
7_1,13,Q10 016,Maximark,Đang khai thác,Nhà chờ,Đường 3/2,3,No,No,10.776977,106.68099
7_1,13,Q3 033,Nhà thờ Dòng chúa Cứu thế,Đang khai thác,Trụ dừng,Kỳ Đồng,25,No,No,10.780805,106.681305
7_1,13,Q3 034,Trần Quốc Thảo,Đang khai thác,Trụ dừng,Kỳ Đồng,5,No,No,10.784504,106.683022
7_1,13,Q3 042,Chợ Nguyễn Văn Trỗi,Đang khai thác,Trụ dừng,Lê Văn Sỹ,332 - 334,No,No,10.787041,106.679535
7_1,13,Q3 093,Trần Quang Diệu,Đang khai thác,Trụ dừng,Trần Quang Diệu,24 - 26,No,No,10.788373,106.678299
7_1,13,QPN 030,Bệnh viện An Sinh,Đang khai thác,Trụ dừng,Trần Huy Liệu,8,No,No,10.791023,106.678123
7_1,13,QPN 031,Ngã Tư Nguyễn Văn Trỗi,Đang khai thác,Trụ dừng,Trần Huy Liệu,60,No,No,10.793028,106.677992
7_1,13,QPN 049,Trung tâm văn hóa Quận Phú Nhuận,Đang khai thác,Trụ dừng,Nguyễn Văn Trỗi,68,No,No,10.795421,106.676093
7_1,13,QPN 050,Học viện Hàng kHông,Đang khai thác,Trụ dừng,Nguyễn Văn Trỗi,104,No,No,10.79677,106.673797
7_1,13,QPN 051,Bệnh viện Quận Phú Nhuận,Đang khai thác,Trụ dừng,Nguyễn Văn Trỗi,142,No,No,10.798525,106.670793
7_1,13,QPN 052,Cây xăng Quân khu 7,Đang khai thác,Nhà chờ,Nguyễn Văn Trỗi,180,No,No,10.799642,106.66891
7_1,13,QTB 099,Cổng trước SVĐ Quân Khu 7,Đang khai thác,Nhà chờ,Phan Đình Giót,A2 (Sân vận động Quân khu 7),No,No,10.800848,106.66678
7_1,13,QTB 101,Rạp Tân Sơn Nhất,Đang khai thác,Nhà chờ,Phổ Quang,2B (Hông sân vận động Quân Khu 7),No,No,10.80244,106.665924
7_1,13,QTB 102,Trung tâm sát hạch lái xe,Đang khai thác,Trụ dừng,Phổ Quang,66 (Công ty Xe khách Sài Gòn),No,No,10.805417,106.6667
7_1,13,QTB 103,Cây xăng Quân đội,Đang khai thác,Trụ dừng,Phổ Quang,96-100,No,No,10.807221,106.668495
7_1,13,QPN 033,Trường Đại học Kỹ thuật Công nghệ,Đang khai thác,Trụ dừng,Phổ Quang,140,No,No,10.808204,106.672236
7_1,13,QPN 036,Cuối công viên Gia Định,Đang khai thác,Nhà chờ,Hoàng Minh Giám,7,No,No,10.809727,106.674929
7_1,13,QPN 037,Ngã ba Đặng Văn Sâm,Đang khai thác,Nhà chờ,Hoàng Minh Giám,Ngã ba Đặng Văn Sâm,No,No,10.811382,106.676399
7_1,13,QPN 038,Đầu công viên Gia Định,Đang khai thác,Nhà chờ,Hoàng Minh Giám,Cây xanh số 7,No,No,10.8135,106.678222
7_1,13,QGV 040,Trạm đầu Nguyễn Thái Sơn,Đang khai thác,Trụ dừng,Nguyễn Thái Sơn,36,No,No,10.815178,106.679596
7_1,13,QGV 041,Bệnh Viện 175,Đang khai thác,Trụ dừng,Nguyễn Thái Sơn,90,No,No,10.81674,106.680847
7_1,13,QGV 042,Ngã Ba Phạm Ngũ Lão,Đang khai thác,Trụ dừng,Nguyễn Thái Sơn,182 (148B),No,No,10.819923,106.683378
7_1,13,QGV 043,Ngã Ba Phạm Ngũ Lão,Đang khai thác,Trụ dừng,Nguyễn Thái Sơn,246 (180),No,No,10.820508,106.683828
7_1,13,QGV 044,Trường Đại học Công nghiệp,Đang khai thác,Trụ dừng,Nguyễn Thái Sơn,320,No,No,10.822789,106.685636
7_1,13,QGV 045,"UBND Phường 5, Quận Gò Vấp",Đang khai thác,Trụ dừng,Nguyễn Thái Sơn,396,No,No,10.82507,106.687881
7_1,13,BX43,BÃI HẬU CẦN SỐ 1,Đang khai thác,Bến xe,Phan Văn Trị,BÃI HẬU CẦN SỐ 1,Yes,Yes,10.82361125946,106.69189453125
7_1,14,BX43,BÃI HẬU CẦN SỐ 1,Đang khai thác,Bến xe,Phan Văn Trị,BÃI HẬU CẦN SỐ 1,Yes,Yes,10.82361125946,106.69189453125
7_1,14,QGV 001,Bãi hậu cần số 1,Đang khai thác,Trụ dừng,Phan Văn Trị,Đối diện 439,No,No,10.82389,106.69202
7_1,14,QGV 048,"UBND Phường 5, Quận Gò Vấp",Đang khai thác,Trụ dừng,Nguyễn Thái Sơn,247,No,No,10.825513,106.688259
7_1,14,QGV 049,Trường Đại học Công nghiệp,Đang khai thác,Trụ dừng,Nguyễn Thái Sơn,145,No,No,10.822636,106.685164
7_1,14,QGV 050,Ngã Ba Phạm Ngũ Lão,Đang khai thác,Trụ dừng,Nguyễn Thái Sơn,63,No,No,10.820866,106.683758
7_1,14,QGV 187,Nhà Tang Lễ,Đang khai thác,Biển treo,Phạm Ngũ Lão,220 (175),No,No,10.822141,106.682616
7_1,14,QGV 188,Siêu Thị Big C,Đang khai thác,Biển treo,Phạm Ngũ Lão,72 (45),No,No,10.825861,106.680561
7_1,14,QGV 121,Siêu Thị Big C Gò Vấp,Đang khai thác,Trụ dừng,Nguyễn Kiệm,Đối diện Big C,No,No,10.825682,106.679606
7_1,14,QGV 122,Xóm Cháy,Đang khai thác,Trụ dừng,Nguyễn Kiệm,629B,No,No,10.821751,106.678764
7_1,14,QGV 123,Bệnh Viện 175,Đang khai thác,Trụ dừng,Nguyễn Kiệm,151,No,No,10.818837,106.678719
7_1,14,QGV 124,Chợ Tân Sơn Nhất,Đang khai thác,Trụ dừng,Nguyễn Kiệm,37 - 39,No,No,10.815118,106.678619
7_1,14,QPN 034,Đầu công viên Gia Định,Đang khai thác,Nhà chờ,Hoàng Minh Giám,Đối diện cây xanh số 7,No,No,10.813542,106.677895
7_1,14,QPN 035,Cuối công viên Gia Định,Đang khai thác,Nhà chờ,Hoàng Minh Giám,Đối diện số 5,No,No,10.809906,106.674741
7_1,14,QPN 053,Đầu Đường Đào Duy Anh,Đang khai thác,Trụ dừng,Đào Duy Anh,155,No,No,10.807978,106.674057
7_1,14,QPN 054,Cuối Đường Đào Duy Anh,Đang khai thác,Nhà chờ,Đào Duy Anh,7-9,No,No,10.805891,106.677177
7_1,14,QPN 023,Ngã ba Đào Duy Anh,Đang khai thác,Trụ dừng,Hồ Văn Huê,129,No,No,10.804858,106.677729
7_1,14,QPN 024,Tháp Nước,Đang khai thác,Trụ dừng,Hồ Văn Huê,43B,No,No,10.802434,106.676366
7_1,14,QPN 025,Trung tâm hội nghị tiệc cưới White Palace,Đang khai thác,Trụ dừng,Hồ Văn Huê,1B,No,No,10.800074,106.675025
7_1,14,QPN 026,Nhà thờ Phú Nhuận,Đang khai thác,Trụ dừng,Trần Huy Liệu,223,No,No,10.798646,106.677525
7_1,14,QPN 027,Công an Quận Phú Nhuận,Đang khai thác,Trụ dừng,Trần Huy Liệu,139,No,No,10.795658,106.677702
7_1,14,QPN 028,Ngã tư Nguyễn Văn Trỗi,Đang khai thác,Trụ dừng,Trần Huy Liệu,91 - 93,No,No,10.792667,106.677887
7_1,14,QPN 029,Bệnh viện An Sinh,Đang khai thác,Trụ dừng,Trần Huy Liệu,25 - 27,No,No,10.791171,106.677986
7_1,14,Q3 094,Lê Văn Sỹ,Đang khai thác,Trụ dừng,Trần Quang Diệu,19,No,No,10.788544,106.678123
7_1,14,Q3 047,Chợ Nguyễn Văn Trỗi,Đang khai thác,Trụ dừng,Lê Văn Sỹ,217,No,No,10.786577,106.679787
7_1,14,Q3 035,Trần Quốc Thảo,Đang khai thác,Nhà chờ,Kỳ Đồng,12,No,No,10.78456,106.682868
7_1,14,Q3 036,Nhà thờ Dòng chúa Cứu thế,Đang khai thác,Nhà chờ,Kỳ Đồng,38,No,No,10.780704,106.681061
7_1,14,Q3 075,Nguyễn Thông,Đang khai thác,Trụ dừng,Nguyễn Thông,86,No,No,10.781328,106.679573
7_1,14,Q3 066,Ga Hòa Hưng,Đang khai thác,Trụ dừng,Nguyễn Phúc Nguyên,Đối diện Trụ sở KP3,No,No,10.781528,106.678383
7_1,14,Q3 067,Rạch Bùng Binh,Đang khai thác,Trụ dừng,Nguyễn Phúc Nguyên,Đối diện 186 (167),No,No,10.780455,106.679184
7_1,14,Q3 068,Vòng xoay Dân Chủ,Đang khai thác,Trụ dừng,Nguyễn Phúc Nguyên,47 - 49,No,No,10.778592,106.681038
7_1,14,Q10 001,Maximark,Đang khai thác,Trụ dừng,Đường 3/2,54,Yes,No,10.777162,106.680771
7_1,14,Q10 002,BV Bình Dân,Đang khai thác,Trụ dừng,Đường 3/2,172,No,No,10.774785,106.678947
7_1,14,Q10 003,Học viện hành chính quốc gia,Đang khai thác,Nhà chờ,Đường 3/2,10,No,No,10.773457,106.676951
7_1,14,Q10 004,Học viện hành chính quốc gia,Đang khai thác,Nhà chờ,Đường 3/2,Kế 10A,No,No,10.772661,106.675701
7_1,14,Q10 005,Nhà hát Hòa Bình,Đang khai thác,Nhà chờ,Đường 3/2,240,No,No,10.771712,106.674202
7_1,14,Q10 006,Nhà thờ Vinh Sơn,Đang khai thác,Trụ dừng,Đường 3/2,270,No,No,10.770521,106.67215
7_1,14,Q10 007,Bệnh viện nhi đồng,Đang khai thác,Trụ dừng,Đường 3/2,356,No,No,10.769578,106.670364
7_1,14,Q10 075,Học viện quân y,Đang khai thác,Trụ dừng,Nguyễn Tri Phương,527 (257),No,No,10.766769,106.667259
7_1,14,Q10 076,Chợ Nhật Tảo,Đang khai thác,Trụ dừng,Nguyễn Tri Phương,475,No,No,10.764991,106.667664
7_1,14,Q10 077,Trường Hoàng Văn Thụ,Đang khai thác,Trụ dừng,Nguyễn Tri Phương,399,No,No,10.763371,106.668015
7_1,14,Q10 078,Đại học kinh tế,Đang khai thác,Trụ dừng,Nguyễn Tri Phương,279,No,No,10.761049,106.668488
7_1,14,Q5 036,Ngô Gia Tự,Đang khai thác,Nhà chờ,Ngô Gia Tự,500,No,No,10.758801,106.668062
7_1,14,Q5 035,Trung tâm giáo dục thường xuyên,Đang khai thác,Nhà chờ,Ngô Gia Tự,546,No,No,10.757331,106.667016
7_1,14,Q5 017,Bệnh viện Phạm Ngọc Thạch,Đang khai thác,Nhà chờ,Hồng Bàng,120,No,No,10.755897,106.664511
7_1,14,Q5 018,Bệnh viện Hùng Vương,Đang khai thác,Nhà chờ,Hồng Bàng,132,No,No,10.755196,106.661072
7_1,14,Q5 019,Bệnh viện Chợ Rẫy,Đang khai thác,Trụ dừng,Hồng Bàng,172,No,No,10.754875,106.659501
7_1,14,Q5 013,Rạp Đại Quang,Đang khai thác,Nhà chờ,Châu Văn Liêm,81,No,No,10.752445,106.658792
7_1,14,Q5 014,Bưu điện Quận 5,Đang khai thác,Biển treo,Châu Văn Liêm,13-15,No,No,10.751381,106.658894
7_1,14,Q5 015,Hải Thượng Lãn Ông,Đang khai thác,Trụ dừng,Hải Thượng Lãn Ông,210-212,No,No,10.750948,106.658358
7_1,14,Q5 102,Chợ Kim Biên,Đang khai thác,Trụ dừng,Trang Tử,5,No,No,10.751128,106.655086
7_1,14,BX14,Bến xe Chợ Lớn,Đang khai thác,Bến xe,Lê Quang Sung,GA HKXB CHO LON,Yes,Yes,10.751253128052,106.65256500244
28_1,55,BX28,KDL BCR,Đang khai thác,Bến xe,Tam Đa,KDL BCR,Yes,Yes,10.803756713867,106.83905792236
28_1,55,Q9 161,Chợ Long Trường,Đang khai thác,Trụ dừng,Nguyễn Duy Trinh,Đối diện Chợ Long Trường,No,No,10.806213,106.821077
28_1,55,Q9 088,Ngã 3 Long Trường,Đang khai thác,Trụ dừng,Lã Xuân Oai,65D,No,No,10.806144,106.817027
28_1,55,Q9 087,Câu cá Lan Anh,Đang khai thác,Trụ dừng,Lã Xuân Oai,27,No,No,10.809005,106.815814
28_1,55,Q9 086,Quán Tây Tăng Long,Đang khai thác,Trụ dừng,Lã Xuân Oai,18A1,No,No,10.813089,106.813899
28_1,55,Q9 085,Trường cấp 3 Long Trường,Đang khai thác,Trụ dừng,Lã Xuân Oai,Kế 417,No,No,10.817091,106.810913
28_1,55,Q9 083,Cây xăng,Đang khai thác,Trụ dừng,Lã Xuân Oai,1/32,No,No,10.822705,106.808664
28_1,55,Q9 082,Ngã tư Samsung,Đang khai thác,Trụ dừng,Lã Xuân Oai,215,No,No,10.830471,106.804351
28_1,55,Q9 081,Quán Nhà Quê,Đang khai thác,Trụ dừng,Lã Xuân Oai,Quán Nhà Quê,No,No,10.836525,106.799362
28_1,55,Q9 239,Ngã 3 Xóm Bến,Đang khai thác,Trụ dừng,Làng Tăng Phú,7,No,No,10.839997,106.79684
28_1,55,Q9 240,Khu phố 4,Đang khai thác,Trụ dừng,Làng Tăng Phú,51,No,No,10.842611,106.798444
28_1,55,Q9 241,Ngã 3 Nghêu sò,Đang khai thác,Trụ dừng,Làng Tăng Phú,Đối diện 15/369,No,No,10.846004,106.798847
28_1,55,Q9 102,Chung cư C6,Đang khai thác,Trụ dừng,Lê Văn Việt,Đối diện 504,No,No,10.847331,106.801357
28_1,55,Q9 103,Đại Học GTVT,Đang khai thác,Trụ dừng,Lê Văn Việt,Trung tâm thông tin thư viện,No,No,10.845566,106.794421
28_1,55,Q9 104,Bệnh viện Quận 9,Đang khai thác,Trụ dừng,Lê Văn Việt,99,No,No,10.844607,106.790349
28_1,55,Q9 105,Chợ Tăng Nhơn Phú B,Đang khai thác,Trụ dừng,Lê Văn Việt,Đối diện chợ Tăng Nhơn Phú,No,No,10.844923,106.788209
28_1,55,Q9 106,Chợ Hiệp Phú,Đang khai thác,Trụ dừng,Lê Văn Việt,249,No,No,10.84427,106.784084
28_1,55,Q9 107,Trạm y tế Phường Hiệp Phú,Đang khai thác,Trụ dừng,Lê Văn Việt,189-191,No,No,10.844381,106.781723
28_1,55,Q9 091,Nhà sách Thành Nghĩa,Đang khai thác,Trụ dừng,Lê Văn Việt,Đối diện 140-142,No,No,10.84486,106.780563
28_1,55,Q9 109,Bệnh viện 7C-Trường Quân y 2,Đang khai thác,Trụ dừng,Lê Văn Việt,91-93,No,No,10.846799,106.777512
28_1,55,Q9 110,Siêu thị Coopmark,Đang khai thác,Trụ dừng,Lê Văn Việt,17-19,No,No,10.848411,106.775045
28_1,55,QTD 065,Trường Đại học Sư phạm Kỹ thuật,Đang khai thác,Nhà chờ,Võ Văn Ngân,1,No,No,10.849823,106.772089
28_1,55,QTD 066,Siêu thị Nguyễn Kim,Đang khai thác,Ô sơn,Võ Văn Ngân,312,No,No,10.849805,106.768837
28_1,55,QTD 067,Nhà thiếu nhi Thủ Đức,Đang khai thác,Nhà chờ,Võ Văn Ngân,Nhà thiếu nhi,No,No,10.850556,106.766794
28_1,55,QTD 068,Trường Lê Quý Đôn,Đang khai thác,Trụ dừng,Võ Văn Ngân,231,No,No,10.850808,106.764101
28_1,55,QTD 069,Ngã ba Chương Dương,Đang khai thác,Trụ dừng,Võ Văn Ngân,Đối diện 100,No,No,10.850645,106.760201
28_1,55,QTD 020,Nhà Sách Thủ Đức,Đang khai thác,Ô sơn,Tô Ngọc Vân,68-70,No,No,10.851977,106.753235
28_1,55,QTD 021,Siêu thị CoopFood,Đang khai thác,Trụ dừng,Tô Ngọc Vân,192,No,No,10.855645,106.75069
28_1,55,QTD 018,Ngã Ba Tam Hà - Tô Ngọc Vân,Đang khai thác,Ô sơn,Tam Hà,15,No,No,10.860263,106.747826
28_1,55,QTD 019,Ngã Tư Tam Hà - Phú Châu,Đang khai thác,Ô sơn,Tam Hà,127-129,No,No,10.863057,106.745872
28_1,55,QTD 014,Đường Phú Châu,Đang khai thác,Trụ dừng,Phú Châu,23,No,No,10.862831,106.744709
28_1,55,QTD 022,Chùa  Vạn Đức,Đang khai thác,Trụ dừng,Tỉnh lộ 43,476,No,No,10.863242,106.742622
28_1,55,QTD 023,Chùa Vạn Hạnh,Đang khai thác,Biển treo,Tỉnh lộ 43,522,No,No,10.86497,106.741928
28_1,55,QTD 024,Công ty Minh Nghệ,Đang khai thác,Trụ dừng,Tỉnh lộ 43,96D3,No,No,10.866192,106.739929
28_1,55,QTD 025,Điện lực Thủ Đức,Đang khai thác,Trụ dừng,Tỉnh lộ 43,562,No,No,10.866601,106.738564
28_1,55,QTD 026,UBND Phường Tam Bình,Đang khai thác,Trụ dừng,Tô Ngọc Vân,640,No,No,10.868458,106.735382
28_1,55,QTD 027,Ngã Tư Gò Dưa,Đang khai thác,Trụ dừng,Tỉnh lộ 43,772-774,No,No,10.87333,106.732392
28_1,55,QTD 028,Cây Xăng Bình Chiểu,Đang khai thác,Trụ dừng,Tỉnh lộ 43,828,No,No,10.876981,106.732113
28_1,55,QTD 029,Chợ Bình Chiểu,Đang khai thác,Trụ dừng,Tỉnh lộ 43,878,No,No,10.879494,106.730316
28_1,55,QTD 030,UBND Phường Bình Chiểu,Đang khai thác,Biển treo,Tỉnh lộ 43,920,No,No,10.881665,106.72941
28_1,55,QTD 031,Nhà hàng Song Sinh,Đang khai thác,Trụ dừng,Tỉnh lộ 43,992,No,No,10.88442,106.728981
28_1,55,QTD 032,Ngã 3 Linh Trung 2,Đang khai thác,Trụ dừng,Tỉnh lộ 43,Hoàn Cầu,No,No,10.889891,106.727898
28_1,55,QTD 033,Chợ Đồng An,Đang khai thác,Ô sơn,Tỉnh lộ 43,28A,No,No,10.891993,106.724464
28_1,55,QTD 034,Khu Công nghiệp Đồng an,Đang khai thác,Ô sơn,Tỉnh lộ 43,7/2,No,No,10.893744,106.721674
28_1,55,BX76,Khu chế xuất Linh Trung 2,Đang khai thác,Bến xe,Ngô Chí Quốc,ĐẦU BẾN KCX LINH TRUNG 2,Yes,Yes,10.89524,106.71862
28_1,56,BX76,Khu chế xuất Linh Trung 2,Đang khai thác,Bến xe,Ngô Chí Quốc,ĐẦU BẾN KCX LINH TRUNG 2,Yes,Yes,10.89524,106.71862
28_1,56,QTD 035,Khu Công nghiệp Đồng an,Đang khai thác,Ô sơn,Tỉnh lộ 43,1303,No,No,10.893886,106.721122
28_1,56,QTD 036,Chợ Đồng An,Đang khai thác,Ô sơn,Tỉnh lộ 43,1269,No,No,10.892311,106.723694
28_1,56,QTD 037,Ngã 3 Linh Trung 2,Đang khai thác,Trụ dừng,Tỉnh lộ 43,1227,No,No,10.889835,106.727688
28_1,56,QTD 038,Nhà hàng Song Sinh,Đang khai thác,Trụ dừng,Tỉnh lộ 43,1101-1103,No,No,10.884615,106.728734
28_1,56,QTD 039,UBND Phường Bình Chiểu,Đang khai thác,Trụ dừng,Tỉnh lộ 43,1049,No,No,10.881938,106.729254
28_1,56,QTD 040,Chợ Bình Chiểu,Đang khai thác,Trụ dừng,Tỉnh lộ 43,961,No,No,10.879025,106.730472
28_1,56,QTD 041,Cây Xăng Bình Chiểu,Đang khai thác,Trụ dừng,Tỉnh lộ 43,927-929,No,No,10.876154,106.731845
28_1,56,QTD 042,Ngã Tư Gò Dưa,Đang khai thác,Trụ dừng,Tỉnh lộ 43,825,No,No,10.872941,106.73236
28_1,56,QTD 043,Phường Tam Bình,Đang khai thác,Trụ dừng,Tô Ngọc Vân,691,No,No,10.868147,106.735611
28_1,56,QTD 044,Điện lực Thủ Đức,Đang khai thác,Trụ dừng,Tô Ngọc Vân,Điện lực Thủ Đức,No,No,10.866876,106.738144
28_1,56,QTD 045,Công ty Minh Nghệ,Đang khai thác,Trụ dừng,Tô Ngọc Vân,601,No,No,10.865981,106.740358
28_1,56,QTD 046,Chùa Vạn Hạnh,Đang khai thác,Ô sơn,Tô Ngọc Vân,579,No,No,10.864554,106.741839
28_1,56,QTD 047,Chùa Vạn Đức,Đang khai thác,Trụ dừng,Tô Ngọc Vân,521,No,No,10.862968,106.742713
28_1,56,QTD 048,Nhà thờ Tam Hà,Đang khai thác,Ô sơn,Tô Ngọc Vân,419,No,No,10.860908,106.745465
28_1,56,QTD 049,Chợ Tam Hà,Đang khai thác,Biển treo,Tô Ngọc Vân,351-353,No,No,10.859586,106.747761
28_1,56,QTD 050,Siêu thị Coopfood,Đang khai thác,Trụ dừng,Tô Ngọc Vân,219,No,No,10.855843,106.75045
28_1,56,QTD 051,Bồn nước,Đang khai thác,Biển treo,Tô Ngọc Vân,111,No,No,10.852854,106.752037
28_1,56,QTD 052,Chợ Thủ Đức,Đang khai thác,Ô sơn,Tô Ngọc Vân,13,No,No,10.851198,106.75428
28_1,56,QTD 070,Ngã ba Chương Dương,Đang khai thác,Ô sơn,Võ Văn Ngân,120,No,No,10.850419,106.760931
28_1,56,QTD 071,Cao đẳng xây dựng 2,Đang khai thác,Trụ dừng,Võ Văn Ngân,190,No,No,10.85065,106.764439
28_1,56,QTD 072,Siêu thị Nguyễn Kim,Đang khai thác,Ô sơn,Võ Văn Ngân,274-276,No,No,10.849686,106.769112
28_1,56,QTD 073,Trường ĐHSP Kỹ Thuật,Đang khai thác,Trụ dừng,Võ Văn Ngân,368,No,No,10.849597,106.771917
28_1,56,Q9 089,Siêu thị Coopmark,Đang khai thác,Trụ dừng,Lê Văn Việt,4-6,No,No,10.848192,106.775032
28_1,56,Q9 090,Bệnh viện 7C-Trường Quân y 2,Đang khai thác,Trụ dừng,Lê Văn Việt,50,No,No,10.846262,106.778124
28_1,56,Q9 091,Nhà sách Thành Nghĩa,Đang khai thác,Trụ dừng,Lê Văn Việt,142-144,No,No,10.84486,106.780563
28_1,56,Q9 092,Trạm y tế Phường Hiệp Phú,Đang khai thác,Trụ dừng,Lê Văn Việt,188,No,No,10.844114,106.782028
28_1,56,Q9 093,Chợ Hiệp Phú,Đang khai thác,Trụ dừng,Lê Văn Việt,278,No,No,10.844128,106.784261
28_1,56,Q9 094,Chợ Tăng Nhơn Phú,Đang khai thác,Trụ dừng,Lê Văn Việt,424A-424B,No,No,10.844439,106.788939
28_1,56,Q9 095,Bệnh viện Quận 9,Đang khai thác,Nhà chờ,Lê Văn Việt,Đối diện Bệnh viện Quận 9,No,No,10.8446,106.790977
28_1,56,Q9 096,Đại Học GTVT,Đang khai thác,Trụ dừng,Lê Văn Việt,Đối diện 451,No,No,10.845276,106.793922
28_1,56,Q9 242,Ngã 3 Nghêu sò,Đang khai thác,Trụ dừng,Làng Tăng Phú,84D,No,No,10.845685,106.798767
28_1,56,Q9 243,Khu phố 4,Đang khai thác,Trụ dừng,Làng Tăng Phú,50-52,No,No,10.842879,106.79838
28_1,56,Q9 244,Ngã 3 Xóm Bến,Đang khai thác,Trụ dừng,Làng Tăng Phú,Đối diện 17,No,No,10.840382,106.797184
28_1,56,Q9 074,Quán Nhà Quê,Đang khai thác,Trụ dừng,Lã Xuân Oai,Đối diện Quán Nhà Quê,No,No,10.836178,106.799408
28_1,56,Q9 073,Ngã tư Samsung,Đang khai thác,Trụ dừng,Lã Xuân Oai,Đối diện 215,No,No,10.831241,106.803589
28_1,56,Q9 072,Ngã ba Lò Lu,Đang khai thác,Trụ dừng,Lã Xuân Oai,12/1,No,No,10.823885,106.808084
28_1,56,Q9 071,Trạm xăng Lò Lu,Đang khai thác,Trụ dừng,Lã Xuân Oai,Kế 67,No,No,10.819593,106.809624
28_1,56,Q9 070,Trường cấp 3 Long Trường,Đang khai thác,Trụ dừng,Lã Xuân Oai,18,No,No,10.817035,106.810707
28_1,56,Q9 069,Quán Tây Tăng Long,Đang khai thác,Trụ dừng,Lã Xuân Oai,Đối diện 18A1,No,No,10.813004,106.813766
28_1,56,Q9 084,Câu cá Lan Anh,Đang khai thác,Trụ dừng,Lã Xuân Oai,Đối diện 27,No,No,10.80899,106.815659
28_1,56,Q9 067,Ngã 3 Long Trường,Đang khai thác,Trụ dừng,Lã Xuân Oai,766 (487),No,No,10.806007,106.816962
28_1,56,Q9 166,Chợ Long Trường,Đang khai thác,Ô sơn,Nguyễn Duy Trinh,Chợ Long Trường,No,No,10.806039,106.821106
28_1,56,BX28,KDL BCR,Đang khai thác,Bến xe,Tam Đa,KDL BCR,Yes,Yes,10.803756713867,106.83905792236
24_1,47,BX 01,TĐH xe buýt Sài Gòn,Đang khai thác,Bến xe,Lê Lai,TĐH xe buýt Sài Gòn- CV 23/9,Yes,Yes,10.767676,106.689362
24_1,47,Q1 003,Trống Đồng,Đang khai thác,Nhà chờ,Cách Mạng Tháng Tám,Đối diện số 89,No,No,10.773046,106.690813
24_1,47,Q3 007,Bệnh viện Mắt TPHCM,Đang khai thác,Trụ dừng,Cách Mạng Tháng Tám,108,No,No,10.776461,106.684467
24_1,47,Q3 009,Vòng xoay Dân Chủ,Đang khai thác,Trụ dừng,Cách Mạng Tháng Tám,132C - 132D,No,No,10.778516,106.680481
24_1,47,Q3 010,Ngã Ba Chí Hòa,Đang khai thác,Trụ dừng,Cách Mạng Tháng Tám,276 Bis,No,No,10.780703,106.676345
24_1,47,Q3 014,Công viên Lê Thị Riêng,Đang khai thác,Trụ dừng,Cách Mạng Tháng Tám,542,No,No,10.785814,106.66693
24_1,47,QTB 058,Ngã tư Bảy Hiền,Đang khai thác,Nhà chờ,Cách Mạng Tháng Tám,1236 (544),No,No,10.792649,106.653991
24_1,47,QTB 064,Hội Chợ Triển lãm Tân Bình,Đang khai thác,Trụ dừng,Xuân Diệu,20 (B9),No,No,10.796122,106.655145
24_1,47,QTB 069,Hoàng Hoa Thám,Đang khai thác,Nhà chờ,Trường Chinh,162T,No,No,10.796053,106.647747
24_1,47,QTB 073,Tân Kỳ Tân Quý,Đang khai thác,Biển treo,Trường Chinh,638,No,No,10.804732,106.635629
24_1,47,QTB 079,Khu Công Nghiệp tân Bình,Đang khai thác,Nhà chờ,Trường Chinh,906,No,No,10.821644,106.630447
24_1,47,Q12 129,Siêu thị Chợ Lớn,Đang khai thác,Nhà chờ,Trường Chinh,189/4,No,No,10.82868,106.624594
24_1,47,Q12 122,Bến xe An Sương,Đang khai thác,Trụ dừng,Quốc lộ 22,116,No,No,10.844971,106.614026
24_1,47,Q12 127,Trung tâm văn hóa Quận 12,Đang khai thác,Nhà chờ,Quốc lộ 22,Trung tâm văn hóa Quận 12,No,No,10.85466,106.607863
24_1,47,HHM 025,Ngã 3 Củ Cải,Đang khai thác,Trụ dừng,Quốc lộ 22,8/6B,No,No,10.861856,106.602844
24_1,47,HHM 027,Ngã 3 Bùi Môn,Đang khai thác,Trụ dừng,Quốc lộ 22,3/19,No,No,10.875053,106.593626
24_1,47,HHM 028,Cây xăng Thành Công - Ngã tư Giếng Nước,Đang khai thác,Trụ dừng,Quốc lộ 22,3/88C,No,No,10.877482,106.591748
24_1,47,HHM 030,Ngã tư Hóc Môn,Đang khai thác,Trụ dừng,Quốc lộ 22,206,No,No,10.884615,106.586732
24_1,47,HHM 034,Ngã 3 Hồng Châu,Đang khai thác,Trụ dừng,Quốc lộ 22,2/63,No,No,10.899733,106.576191
24_1,47,HHM 035,Xí nghiệp,Đang khai thác,Trụ dừng,Quốc lộ 22,186,No,No,10.904305,106.572956
24_1,47,HCC 003,Chợ chiều Tân Phú Trung,Đang khai thác,Trụ dừng,Quốc lộ 22,102,No,No,10.931343,106.553714
24_1,47,HCC 006,Trường Tân Phú Trung,Đang khai thác,Nhà chờ,Quốc lộ 22,Trường Tân Phú Trung,No,No,10.939433,106.540335
24_1,47,HCC 009,Ngã tư Quân đội,Đang khai thác,Ô sơn,Quốc lộ 22,40,No,No,10.947133,106.524635
24_1,47,HCC 010,Hồng Đào,Đang khai thác,Trụ dừng,Quốc lộ 22,140,No,No,10.95003,106.520369
24_1,47,HCC 014,Điện lực Củ Chi - Ngã 3 Việt Kiều,Đang khai thác,Trụ dừng,Quốc lộ 22,400,No,No,10.961317,106.501617
24_1,47,BX 63,Bến xe Củ Chi,Đang khai thác,Bến xe,Quốc lộ 22,Bến xe Củ Chi,Yes,Yes,10.971617,106.482099
24_1,48,BX 63,Bến xe Củ Chi,Đang khai thác,Bến xe,Quốc lộ 22,Bến xe Củ Chi,Yes,Yes,10.971617,106.482099
24_1,48,HCC 038,Trường trung học cơ sở Củ Chi,Đang khai thác,Trụ dừng,Quốc lộ 22,607,No,No,10.967041,106.48903
24_1,48,QCCT038,Điện lực Củ Chi - Ngã 3 Việt Kiều,Đang khai thác,Trụ dừng,Quốc lộ 22,Ngã 3 Việt Kiều,No,No,10.9602,106.503161
24_1,48,HCC 043,Sài Gòn Cáp,Đang khai thác,Trụ dừng,Quốc lộ 22,299,No,No,10.956818,106.509694
24_1,48,HCC 046,Ngã tư Quân đội,Đang khai thác,Trụ dừng,Quốc lộ 22,97,No,No,10.947954,106.522923
24_1,48,HCC 049,trường THCS Tân Phú Trung,Đang khai thác,Nhà chờ,Quốc lộ 22,Đối diện Trường Tân Phú Trung,No,No,10.93918,106.540223
24_1,48,HCC 052,Chợ Tân Phú Trung,Đang khai thác,Trụ dừng,Quốc lộ 22,85C,No,No,10.931917,106.552808
24_1,48,HHM 039,Cầu An Hạ - Giáo xứ Tân Thịnh,Đang khai thác,Trụ dừng,Quốc lộ 22,Giáo xứ Tân Thịnh,No,No,10.916262,106.564212
24_1,48,HHM 042,Ngã 3 Hồng Châu,Đang khai thác,Trụ dừng,Quốc lộ 22,1/147,No,No,10.899622,106.575848
24_1,48,HHM 044,Ngã 3 Lam Sơn,Đang khai thác,Trụ dừng,Quốc lộ 22,65/5C,No,No,10.891747,106.581384
24_1,48,HHM 046,Ngã tư Hóc Môn,Đang khai thác,Trụ dừng,Quốc lộ 22,47/6,No,No,10.883197,106.587306
24_1,48,HHM 048,Cây xăng Thành Công - Ngã tư giếng nước,Đang khai thác,Trụ dừng,Quốc lộ 22,Cây xăng Thành Công,No,No,10.877018,106.591635
24_1,48,HHM 050,Ngã 3 Bùi Môn,Đang khai thác,Trụ dừng,Quốc lộ 22,43/1,No,No,10.869901,106.596764
24_1,48,HHM 053,Ngã 3 Củ Cải,Đang khai thác,Nhà chờ,Quốc lộ 22,13/1,No,No,10.860471,106.603378
24_1,48,QHMT229,Trung tâm văn hóa Quận 12 - Ngã 4 Trung Chánh,Đang khai thác,Nhà chờ,Quốc lộ 22,Quán ăn xuyên Á,No,No,10.853538,106.608179
24_1,48,HHM 058,Bến xe An Sương,Đang khai thác,Trụ dừng,Quốc lộ 22,1B,No,No,10.845124,106.61356
24_1,48,Q12 139,Thiên Hòa,Đang khai thác,Nhà chờ,Trường Chinh,Kế 2/6B,No,No,10.82624,106.62586
24_1,48,QTP 010,Trạm Dệt Thành Công,Đang khai thác,Nhà chờ,Trường Chinh,8,No,No,10.822315,106.629825
24_1,48,QTB 080,Chợ Võ Thành Trang,Đang khai thác,Ô sơn,Trường Chinh,541,No,No,10.801275,106.637517
24_1,48,QTB 083,Hoàng Hoa Thám,Đang khai thác,Trụ dừng,Trường Chinh,233,No,No,10.796606,106.646218
24_1,48,QTB 059,Ngã tư Bảy Hiền,Đang khai thác,Nhà chờ,Cách Mạng Tháng Tám,1125 (đối diện 544),No,No,10.792391,106.654131
24_1,48,Q10 083,Công Viên Lê Thị Riêng,Đang khai thác,Nhà chờ,Cách Mạng Tháng Tám,Công Viên Lê Thị Riêng,No,No,10.786236,106.665777
24_1,48,Q10 086,Chùa Bửu Đà,Đang khai thác,Trụ dừng,Cách Mạng Tháng Tám,427,No,No,10.78124,106.675063
24_1,48,Q10 088,Ngã 6 Dân Chủ,Đang khai thác,Nhà chờ,Cách Mạng Tháng Tám,Đối diện 132A,No,No,10.778205,106.680706
24_1,48,Q3 016,Bệnh viện Mắt TPHCM,Đang khai thác,Nhà chờ,Cách Mạng Tháng Tám,239,No,No,10.776202,106.684338
24_1,48,Q1 004,Trống Đồng,Đang khai thác,Trụ dừng,Cách Mạng Tháng Tám,85,No,No,10.772345,106.691499
24_1,48,BX 01,TĐH xe buýt Sài Gòn,Đang khai thác,Bến xe,Lê Lai,TĐH xe buýt Sài Gòn- CV 23/9,Yes,Yes,10.767676,106.689362
4_1,7,BX 01,TĐH xe buýt Sài Gòn,Đang khai thác,Bến xe,Lê Lai,TĐH xe buýt Sài Gòn- CV 23/9,Yes,Yes,10.767676,106.689362
4_1,7,Q1 041,Tôn Thất Tùng,Đang khai thác,Nhà chờ,Lê Lai,Đối diện 204,No,No,10.768651,106.690555
4_1,7,Q1 042,Nguyễn Thị Nghĩa,Đang khai thác,Nhà chờ,Lê Lai,Đối diện 96,No,No,10.769778,106.693436
4_1,7,Q1 043,Khách sạn New world,Đang khai thác,Nhà chờ,Lê Lai,Đối diện 1A Phạm Hồng Thái,No,No,10.77107,106.696714
4_1,7,Q1TC1E,Bến Thành E,Đang khai thác,Bến xe,Phạm Ngũ Lão,Bến Thành,Yes,Yes,10.77054,106.698448
4_1,7,Q1 015,Hàm Nghi,Đang khai thác,Nhà chờ,Hàm Nghi,163,No,No,10.770943,106.699562
4_1,7,Q1 016,Chợ Củ,Đang khai thác,Nhà chờ,Hàm Nghi,89A,No,No,10.770822,106.70196
4_1,7,Q1 078,"Đền Thờ Ấn Giáo, Pasteur",Đang khai thác,Nhà chờ,Pasteur,Đền Thờ Ấn Giáo,No,No,10.773595,106.70139
4_1,7,Q1 079,Lê Thánh Tôn,Đang khai thác,Trụ dừng,Pasteur,144,No,No,10.775088,106.700768
4_1,7,Q1 080,Lý Tự Trọng,Đang khai thác,Trụ dừng,Pasteur,158,No,No,10.777089,106.699657
4_1,7,Q1 081,Công viên 30/4,Đang khai thác,Trụ dừng,Pasteur,178,No,No,10.778308,106.698333
4_1,7,Q1 082,Nguyễn Thị Minh Khai,Đang khai thác,Nhà chờ,Pasteur,184,No,No,10.779782,106.696659
4_1,7,Q3 082,Đại học Kiến Trúc,Đang khai thác,Nhà chờ,Pasteur,194 D,No,No,10.781804,106.694579
4_1,7,Q3 083,Sở Tư Pháp,Đang khai thác,Nhà chờ,Pasteur,214,No,No,10.783419,106.692749
4_1,7,Q3 084,Điện Biên Phủ,Đang khai thác,Nhà chờ,Pasteur,232,No,No,10.784924,106.691145
4_1,7,Q3 101,Viện Pasteur,Đang khai thác,Nhà chờ,Võ Thị Sáu,Đối diện 153 A-B,No,No,10.785583,106.689613
4_1,7,Q3 048,Viện Paster,Đang khai thác,Nhà chờ,Nam Kỳ Khởi Nghĩa,252 (Đối diện 173),No,No,10.785577,106.688683
4_1,7,Q3 049,Ngân hàng Sacombank,Đang khai thác,Trụ dừng,Nam Kỳ Khởi Nghĩa,260,No,No,10.787047,106.687133
4_1,7,Q3 050,Lý Chính Thắng,Đang khai thác,Ô sơn,Nam Kỳ Khởi Nghĩa,288 B7,No,No,10.789245,106.684746
4_1,7,Q3 051,Chùa Vĩnh Nghiêm,Đang khai thác,Trụ dừng,Nam Kỳ Khởi Nghĩa,382E,No,No,10.790694,106.683125
4_1,7,QPN 048,Trần Huy Liệu,Đang khai thác,Trụ dừng,Nguyễn Văn Trỗi,40,No,No,10.793555,106.679236
4_1,7,QPN 049,Trung tâm văn hóa Quận Phú Nhuận,Đang khai thác,Trụ dừng,Nguyễn Văn Trỗi,68,No,No,10.795421,106.676093
4_1,7,QPN 050,Học viện Hàng kHông,Đang khai thác,Trụ dừng,Nguyễn Văn Trỗi,104,No,No,10.79677,106.673797
4_1,7,QPN 051,Bệnh viện Quận Phú Nhuận,Đang khai thác,Trụ dừng,Nguyễn Văn Trỗi,142,No,No,10.798525,106.670793
4_1,7,QPN 052,Cây xăng Quân khu 7,Đang khai thác,Nhà chờ,Nguyễn Văn Trỗi,180,No,No,10.799642,106.66891
4_1,7,QTB 099,Cổng trước SVĐ Quân Khu 7,Đang khai thác,Nhà chờ,Phan Đình Giót,A2 (Sân vận động Quân khu 7),No,No,10.800848,106.66678
4_1,7,QTB 108,Công viên Hoàng Văn Thụ,Đang khai thác,Nhà chờ,Phan Thúc Duyện,Công viên Hoàng Văn Thụ,No,No,10.802403,106.664221
4_1,7,QTB 107,Lăng Cha Cả,Đang khai thác,Nhà chờ,Trần Quốc Hoàn,20,No,No,10.801365,106.662312
4_1,7,QTB 110,Siêu thị Maximark Cộng Hòa,Đang khai thác,Trụ dừng,Cộng Hòa,60,No,No,10.801038,106.659168
4_1,7,QTB 111,Nhà hát Quân Đội,Đang khai thác,Trụ dừng,Cộng Hòa,138 (Kế nhà hát Quân đội),No,No,10.801238,106.656754
4_1,7,QTB 112,Ngân hàng Quân đội,Đang khai thác,Nhà chờ,Cộng Hòa,Tiệc cưới Hương Sen,No,No,10.801412,106.654817
4_1,7,QTB 113,Công ty Lô Hội,Đang khai thác,Trụ dừng,Cộng Hòa,184,No,No,10.801728,106.651127
4_1,7,QTB 114,Ngã tư Hoàng Hoa Thám,Đang khai thác,Trụ dừng,Cộng Hòa,304,No,No,10.802102,106.646953
4_1,7,QTB 115,Ngã ba Bình Giã,Đang khai thác,Trụ dừng,Cộng Hòa,390,No,No,10.802276,106.644512
4_1,7,QTB 116,Lê Văn Huân,Đang khai thác,Trụ dừng,Cộng Hòa,496,No,No,10.802571,106.640967
4_1,7,QTBBXCH,"592, Cộng Hòa",Chưa khai thác,Ô sơn,Cộng Hòa,592,No,No,10.804060003258,106.63784712553
4_1,7,QTB 117,Thượng Uyển,Đang khai thác,Nhà chờ,Cộng Hòa,660 (kế 592),No,No,10.806313,106.636192
4_1,7,QTB 075,Mũi tàu Cộng Hòa,Đang khai thác,Trụ dừng,Trường Chinh,19B1,No,No,10.808078,106.634696
4_1,7,QTB 076,Hoa Kiểng Thành Hưng,Đang khai thác,Nhà chờ,Trường Chinh,9B,No,No,10.811695,106.633499
4_1,7,QTB 077,Tân Sơn,Đang khai thác,Nhà chờ,Trường Chinh,720,No,No,10.814638,106.632584
4_1,7,QTB 078,Siêu thị Coop Mart Thắng Lợi,Đang khai thác,Nhà chờ,Trường Chinh,792 (25/19),No,No,10.817541,106.631691
4_1,7,QTB 079,Khu Công Nghiệp tân Bình,Đang khai thác,Nhà chờ,Trường Chinh,906,No,No,10.821644,106.630447
4_1,7,Q12 128,Thiên Hòa,Đang khai thác,Nhà chờ,Trường Chinh,1/17A,No,No,10.82673,106.626096
4_1,7,Q12 129,Siêu thị Chợ Lớn,Đang khai thác,Nhà chờ,Trường Chinh,189/4,No,No,10.82868,106.624594
4_1,7,Q12 130,Chùa Vĩnh Phước,Đang khai thác,Nhà chờ,Trường Chinh,258,No,No,10.832547,106.622116
4_1,7,Q12 132,Chùa Lạc Quang,Đang khai thác,Nhà chờ,Trường Chinh,408,No,No,10.83514,106.620464
4_1,7,Q12 131,Bitis,Đang khai thác,Nhà chờ,Trường Chinh,640,No,No,10.83819,106.618495
4_1,7,Q12 133,Chợ Chiều,Đang khai thác,Nhà chờ,Trường Chinh,774A,No,No,10.841436,106.616457
4_1,7,Q12 122,Bến xe An Sương,Đang khai thác,Trụ dừng,Quốc lộ 22,116,No,No,10.844971,106.614026
4_1,7,BX41,Bến xe An Sương,Đang khai thác,Bến xe,Quốc lộ 22,Bến xe An Sương,Yes,Yes,10.843737602234,106.61337280273
4_1,8,BX41,Bến xe An Sương,Đang khai thác,Bến xe,Quốc lộ 22,Bến xe An Sương,Yes,Yes,10.843737602234,106.61337280273
4_1,8,Q12 134,Chợ Chiều,Đang khai thác,Nhà chờ,Trường Chinh,601,No,No,10.841209,106.615925
4_1,8,Q12 135,Bitis,Đang khai thác,Nhà chờ,Trường Chinh,487,No,No,10.837863,106.618044
4_1,8,Q12 136,Chùa Lạc Quang,Đang khai thác,Nhà chờ,Trường Chinh,257,No,No,10.834623,106.620163
4_1,8,Q12 137,Chùa Vĩnh Phước,Đang khai thác,Nhà chờ,Trường Chinh,Chùa Vĩnh Phước,No,No,10.831836,106.621928
4_1,8,Q12 138,Siêu thị Chợ Lớn,Đang khai thác,Nhà chờ,Trường Chinh,113,No,No,10.82898,106.623768
4_1,8,Q12 139,Thiên Hòa,Đang khai thác,Nhà chờ,Trường Chinh,Kế 2/6B,No,No,10.82624,106.62586
4_1,8,QTP 010,Trạm Dệt Thành Công,Đang khai thác,Nhà chờ,Trường Chinh,8,No,No,10.822315,106.629825
4_1,8,QTP 011,Trạm KCN Tân Bình,Đang khai thác,Nhà chờ,Trường Chinh,881,No,No,10.819386,106.630615
4_1,8,QTP 012,Trạm Coopmart Thắng Lợi,Đang khai thác,Nhà chờ,Trường Chinh,2,No,No,10.817114,106.631472
4_1,8,QTP 013,Chế Lan Viên,Đang khai thác,Nhà chờ,Trường Chinh,28/7B,No,No,10.812878,106.632748
4_1,8,QTP 014,Trạm Đài Liệt Sỹ,Đang khai thác,Nhà chờ,Trường Chinh,1/3,No,No,10.808209,106.634262
4_1,8,QTB 118,Thượng Uyển,Đang khai thác,Nhà chờ,Cộng Hòa,680 (Thượng Uyển),No,No,10.806144,106.636055
4_1,8,QTB 119,Tân Kỳ Tân Quý,Đang khai thác,Trụ dừng,Cộng Hòa,401,No,No,10.803541,106.637887
4_1,8,QTB 120,Trạm ETown,Đang khai thác,Nhà chờ,Cộng Hòa,364 (công ty Ree),No,No,10.802371,106.640253
4_1,8,QTB 121,Ngã ba Bình Giã,Đang khai thác,Trụ dừng,Cộng Hòa,303,No,No,10.802055,106.644292
4_1,8,QTB 122,Hoàng Hoa Thám,Đang khai thác,Nhà chờ,Cộng Hòa,19A (Công ty Lô Hội),No,No,10.801544,106.650413
4_1,8,QTB 123,Pico Plaza,Đang khai thác,Nhà chờ,Cộng Hòa,20Bis,No,No,10.801254,106.653637
4_1,8,QTB 124,Trạm Út tịch,Đang khai thác,Trụ dừng,Cộng Hòa,35-37,No,No,10.800985,106.656679
4_1,8,QTB 125,Lăng Cha Cả,Đang khai thác,Nhà chờ,Cộng Hòa,Đối diện 58 (Siêu thị Maximart),No,No,10.800833,106.658819
4_1,8,QTB 036,Phạm Văn Hai,Đang khai thác,Nhà chờ,Hoàng Văn Thụ,259,No,No,10.800469,106.663578
4_1,8,QTB 037,Trạm Bảo Tàng Miền Đông,Đang khai thác,Nhà chờ,Hoàng Văn Thụ,247,No,No,10.800237,106.666372
4_1,8,QPN 043,Cây xăng Quân khu 7,Đang khai thác,Trụ dừng,Nguyễn Văn Trỗi,307,No,No,10.799589,106.66847
4_1,8,QPN 044,Ngã Ba Nguyễn Trọng Tuyển,Đang khai thác,Nhà chờ,Nguyễn Văn Trỗi,279,No,No,10.798282,106.670744
4_1,8,QPN 045,Cổng Xe lửa,Đang khai thác,Trụ dừng,Nguyễn Văn Trỗi,253,No,No,10.796596,106.673609
4_1,8,QPN 046,Trung tâm Văn hóa Quận Phú Nhuận,Đang khai thác,Trụ dừng,Nguyễn Văn Trỗi,157,No,No,10.795236,106.675894
4_1,8,QPN 047,Trần Huy Liệu,Đang khai thác,Trụ dừng,Nguyễn Văn Trỗi,101,No,No,10.793276,106.679167
4_1,8,Q3 052,Chùa Vĩnh Nghiêm,Đang khai thác,Trụ dừng,Nam Kỳ Khởi Nghĩa,321-323,No,No,10.790381,106.683022
4_1,8,Q3 053,Trần Quốc Toản,Đang khai thác,Trụ dừng,Nam Kỳ Khởi Nghĩa,201 A,No,No,10.786831,106.686897
4_1,8,Q3 054,Viện Paster,Đang khai thác,Nhà chờ,Nam Kỳ Khởi Nghĩa,179,No,No,10.785213,106.688637
4_1,8,Q3 055,Điện Biên Phủ,Đang khai thác,Nhà chờ,Nam Kỳ Khởi Nghĩa,159 Ter,No,No,10.782798,106.691376
4_1,8,Q3 056,Coop Mart Nguyễn Đình Chiểu,Đang khai thác,Nhà chờ,Nam Kỳ Khởi Nghĩa,145,No,No,10.78113,106.693152
4_1,8,Q3 057,Trường Lê Quý Đôn,Đang khai thác,Nhà chờ,Nam Kỳ Khởi Nghĩa,Đối diện 166 - 168,No,No,10.779777,106.694626
4_1,8,Q1 075,Tòa Án Thành Phố,Đang khai thác,Nhà chờ,Nam Kỳ Khởi Nghĩa,131,No,No,10.776052,106.698647
4_1,8,Q1 076,Chùa Ông,Đang khai thác,Trụ dừng,Nam Kỳ Khởi Nghĩa,Đối diện 96A,No,No,10.773957,106.699722
4_1,8,Q1 077,Trường CĐKT Cao Thắng,Đang khai thác,Trụ dừng,Nam Kỳ Khởi Nghĩa,Đối diện 86,No,No,10.771416,106.700851
4_1,8,Q1 023,Công ty Đường sắt,Đang khai thác,Nhà chờ,Hàm Nghi,136,No,No,10.771163,106.699356
4_1,8,Q1TC1C,Bến Thành C,Đang khai thác,Bến xe,Phạm Ngũ Lão,Bến Thành,Yes,Yes,10.770787,106.698532
4_1,8,Q1 044,Trường Ernst Thalmann,Đang khai thác,Nhà chờ,Phạm Ngũ Lão,Đối diện 103,No,No,10.769773,106.695839
4_1,8,Q1 045,Đề Thám,Đang khai thác,Nhà chờ,Phạm Ngũ Lão,Đối diện 171,No,No,10.769035,106.693983
4_1,8,BX 01,TĐH xe buýt Sài Gòn,Đang khai thác,Bến xe,Lê Lai,TĐH xe buýt Sài Gòn- CV 23/9,Yes,Yes,10.767676,106.689362
3_1,5,BX 01,TĐH xe buýt Sài Gòn,Đang khai thác,Bến xe,Lê Lai,TĐH xe buýt Sài Gòn- CV 23/9,Yes,Yes,10.767676,106.689362
3_1,5,Q1 041,Tôn Thất Tùng,Đang khai thác,Nhà chờ,Lê Lai,Đối diện 204,No,No,10.768651,106.690555
3_1,5,Q1 042,Nguyễn Thị Nghĩa,Đang khai thác,Nhà chờ,Lê Lai,Đối diện 96,No,No,10.769778,106.693436
3_1,5,Q1 043,Khách sạn New world,Đang khai thác,Nhà chờ,Lê Lai,Đối diện 1A Phạm Hồng Thái,No,No,10.77107,106.696714
3_1,5,Q1TC1D,Bến Thành D,Đang khai thác,Bến xe,Phạm Ngũ Lão,Bến Thành,Yes,Yes,10.770603,106.698441
3_1,5,Q1 015,Hàm Nghi,Đang khai thác,Nhà chờ,Hàm Nghi,163,No,No,10.770943,106.699562
3_1,5,Q1 016,Chợ Củ,Đang khai thác,Nhà chờ,Hàm Nghi,89A,No,No,10.770822,106.70196
3_1,5,Q1 017,Hồ Tùng Mậu,Đang khai thác,Nhà chờ,Hàm Nghi,67,No,No,10.770722,106.704074
3_1,5,Q1 024,Bến Bạch Đằng,Đang khai thác,Nhà chờ,Tôn Đức Thắng,Bến thủy nội địa Thủ Thiêm,No,No,10.773878,106.706648
3_1,5,Q1 057,Công Trường Mê Linh,Đang khai thác,Trụ dừng,Hai Bà Trưng,2,No,No,10.776048,106.705719
3_1,5,Q1 058,Nhà Hát Thành Phố,Đang khai thác,Ô sơn,Hai Bà Trưng,74/A2-74/A4,No,No,10.778031,106.703559
3_1,5,Q1 059,Bệnh viện Nhi Đồng 2,Đang khai thác,Nhà chờ,Hai Bà Trưng,Đối diện 115Ter,No,No,10.779881,106.701536
3_1,5,Q1 060,Bưu Điện Thành Phố,Đang khai thác,Trụ dừng,Hai Bà Trưng,86,No,No,10.780645,106.700673
3_1,5,Q1 061,Sở Công Thương,Đang khai thác,Nhà chờ,Hai Bà Trưng,142,No,No,10.784297,106.696526
3_1,5,Q1 062,Công viên Lê Văn Tám,Đang khai thác,Nhà chờ,Hai Bà Trưng,Đối diện 245,No,No,10.787427,106.692599
3_1,5,Q1 063,Nhà thờ Tân Định,Đang khai thác,Trụ dừng,Hai Bà Trưng,298,No,No,10.789215,106.690399
3_1,5,Q1 064,Chợ Tân Định,Đang khai thác,Trụ dừng,Hai Bà Trưng,372-374,No,No,10.790456,106.688843
3_1,5,QPN 012,Cầu Kiệu,Đang khai thác,Ô sơn,Phan Đình Phùng,28 - 30,No,No,10.79365,106.68481
3_1,5,QPN 013,Chợ Phú Nhuận,Đang khai thác,Ô sơn,Phan Đình Phùng,158 - 160,No,No,10.795062,106.683018
3_1,5,QPN 014,Trường Cao Đẳng Kinh tế Đối ngoại,Đang khai thác,Ô sơn,Phan Đình Phùng,312 - 314,No,No,10.79795,106.680905
3_1,5,QPN 001,Ngã Tư Phú Nhuận,Đang khai thác,Trụ dừng,Nguyễn Kiệm,392,No,No,10.799713,106.680138
3_1,5,QPN 002,Nhà Truyền Thông,Đang khai thác,Trụ dừng,Nguyễn Kiệm,466,No,No,10.802232,106.679245
3_1,5,QPN 003,Ngã ba Hồ Văn Huê,Đang khai thác,Trụ dừng,Nguyễn Kiệm,582,No,No,10.805259,106.678759
3_1,5,QPN 004,Coop Mart Nguyễn Kiệm,Đang khai thác,Trụ dừng,Nguyễn Kiệm,668-670,No,No,10.807077,106.678528
3_1,5,QPN 005,Chùa Vạn Hạnh,Đang khai thác,Nhà chờ,Nguyễn Kiệm,750,No,No,10.810349,106.67856
3_1,5,QGV 125,Trường Cao đẳng Hải Quan,Đang khai thác,Nhà chờ,Nguyễn Kiệm,780A,No,No,10.812475,106.678711
3_1,5,QGV 040,Trạm đầu Nguyễn Thái Sơn,Đang khai thác,Trụ dừng,Nguyễn Thái Sơn,36,No,No,10.815178,106.679596
3_1,5,QGV 041,Bệnh Viện 175,Đang khai thác,Trụ dừng,Nguyễn Thái Sơn,90,No,No,10.81674,106.680847
3_1,5,QGV 042,Ngã Ba Phạm Ngũ Lão,Đang khai thác,Trụ dừng,Nguyễn Thái Sơn,182 (148B),No,No,10.819923,106.683378
3_1,5,QGV 187,Nhà Tang Lễ,Đang khai thác,Biển treo,Phạm Ngũ Lão,220 (175),No,No,10.822141,106.682616
3_1,5,QGV 188,Siêu Thị Big C,Đang khai thác,Biển treo,Phạm Ngũ Lão,72 (45),No,No,10.825861,106.680561
3_1,5,QGV 104,Siêu thị Văn Lang,Đang khai thác,Trụ dừng,Nguyễn Oanh,36,No,No,10.827508,106.679634
3_1,5,QGV 105,Ngã Tư Phan Văn Trị,Đang khai thác,Trụ dừng,Nguyễn Oanh,150,No,No,10.829979,106.678246
3_1,5,QGV 106,Doanh trại Quân đội,Đang khai thác,Nhà chờ,Nguyễn Oanh,152,No,No,10.832563,106.676747
3_1,5,QGV 107,Cư xá Lam Sơn,Đang khai thác,Nhà chờ,Nguyễn Oanh,214,No,No,10.836141,106.675637
3_1,5,QGV 108,Đài Liệt sĩ,Đang khai thác,Nhà chờ,Nguyễn Oanh,Đối diện 197 (93),No,No,10.839297,106.67583
3_1,5,QGV 109,Ngã tư An Nhơn,Đang khai thác,Trụ dừng,Nguyễn Oanh,388,No,No,10.842342,106.676903
3_1,5,QGV 110,Bến Đò,Đang khai thác,Trụ dừng,Nguyễn Oanh,530,No,No,10.846894,106.678512
3_1,5,QGV 111,Cầu An Lộc,Đang khai thác,Trụ dừng,Nguyễn Oanh,604,No,No,10.84887,106.678796
3_1,5,Q12 032,Nhà hàng Bến Xưa,Đang khai thác,Trụ dừng,Hà Huy Giáp,42,No,No,10.852642,106.679285
3_1,5,Q12 033,Ngã tư Ga,Đang khai thác,Trụ dừng,Hà Huy Giáp,154,No,No,10.857331,106.679907
3_1,5,Q12 034,Đình thần Giao Khẩu,Đang khai thác,Ô sơn,Hà Huy Giáp,332,No,No,10.865217,106.680433
3_1,5,Q12 035,Cây xăng Tài Lộc,Đang khai thác,Ô sơn,Hà Huy Giáp,408B,No,No,10.86831,106.678319
3_1,5,Q12 036,Vườn kiểng Quang Dũng,Đang khai thác,Trụ dừng,Hà Huy Giáp,452,No,No,10.871371,106.676978
3_1,5,Q12 037,Ga ra Thanh Hậu,Đang khai thác,Trụ dừng,Hà Huy Giáp,508 (63A),No,No,10.875454,106.677032
3_1,5,Q12 038,Chợ Thạnh Xuân,Đang khai thác,Nhà chờ,Hà Huy Giáp,Nhà văn hóa P. Thạnh Lộc,No,No,10.878493,106.678201
3_1,5,Q12 039,Trường Cao đẳng điện lực 2,Đang khai thác,Trụ dừng,Hà Huy Giáp,554 (Trường điện lực 2),No,No,10.880395,106.679027
3_1,5,BX38,THẠNH LỘC,Đang khai thác,Bến xe,Hà Huy Giáp,4/38 Tổ 11 KP 1 Phường Thạnh Lộc Quận 12,Yes,Yes,10.878941,106.682335
3_1,6,BX38,THẠNH LỘC,Đang khai thác,Bến xe,Hà Huy Giáp,4/38 Tổ 11 KP 1 Phường Thạnh Lộc Quận 12,Yes,Yes,10.878941,106.682335
3_1,6,Q12 049,Trường Điện Lực 2,Đang khai thác,Trụ dừng,Hà Huy Giáp,65/4,No,No,10.880816,106.679075
3_1,6,Q12 050,Chợ Thạnh Xuân,Đang khai thác,Ô sơn,Hà Huy Giáp,59/2 (Chợ Thạnh Xuân),No,No,10.878983,106.678265
3_1,6,Q12 051,Ga ra Thanh Hậu,Đang khai thác,Trụ dừng,Hà Huy Giáp,79C,No,No,10.875074,106.67672
3_1,6,Q12 052,Vườn kiểng Quang Dũng,Đang khai thác,Trụ dừng,Hà Huy Giáp,59/4,No,No,10.871977,106.676785
3_1,6,Q12 053,Cây xăng Tài Lộc,Đang khai thác,Trụ dừng,Hà Huy Giáp,331,No,No,10.868015,106.678233
3_1,6,Q12 056,Nhà hàng Bến Xưa,Đang khai thác,Trụ dừng,Hà Huy Giáp,205,No,No,10.853474,106.679006
3_1,6,Q12 054,Đình thần Giao Khẩu,Đang khai thác,Trụ dừng,Hà Huy Giáp,297,No,No,10.864886,106.680341
3_1,6,Q12 055,Ngã tư Ga,Đang khai thác,Trụ dừng,Hà Huy Giáp,187A (396),No,No,10.857984,106.679649
3_1,6,QGV 112,Cầu An Lộc,Đang khai thác,Trụ dừng,Nguyễn Oanh,521,No,No,10.84862,106.678535
3_1,6,QGV 113,Bến Đò,Đang khai thác,Trụ dừng,Nguyễn Oanh,451,No,No,10.847015,106.67826
3_1,6,QGV 114,Bưu điện An Nhơn,Đang khai thác,Trụ dừng,Nguyễn Oanh,357,No,No,10.843833,106.677139
3_1,6,QGV 115,Ngã Tư An Nhơn,Đang khai thác,Trụ dừng,Nguyễn Oanh,257,No,No,10.84142,106.67634
3_1,6,QGV 116,Đài Liệt sĩ,Đang khai thác,Trụ dừng,Nguyễn Oanh,197,No,No,10.839502,106.675723
3_1,6,QGV 117,Trường Vinhempic,Đang khai thác,Nhà chờ,Nguyễn Oanh,189 (đối diện F5),No,No,10.836852,106.675461
3_1,6,QGV 118,Cư xá Lam Sơn,Đang khai thác,Nhà chờ,Nguyễn Oanh,189 (đối diện A4),No,No,10.834787,106.675631
3_1,6,QGV 119,Ngã Tư Phan Văn Trị,Đang khai thác,Trụ dừng,Nguyễn Oanh,93 (2A),No,No,10.831594,106.676895
3_1,6,QGV 120,Siêu thị Văn Lang,Đang khai thác,Ô sơn,Nguyễn Oanh,27,No,No,10.827205,106.679606
3_1,6,QGV 121,Siêu Thị Big C Gò Vấp,Đang khai thác,Trụ dừng,Nguyễn Kiệm,Đối diện Big C,No,No,10.825682,106.679606
3_1,6,QGV 122,Xóm Cháy,Đang khai thác,Trụ dừng,Nguyễn Kiệm,629B,No,No,10.821751,106.678764
3_1,6,QGV 123,Bệnh Viện 175,Đang khai thác,Trụ dừng,Nguyễn Kiệm,151,No,No,10.818837,106.678719
3_1,6,QGV 124,Chợ Tân Sơn Nhất,Đang khai thác,Trụ dừng,Nguyễn Kiệm,37 - 39,No,No,10.815118,106.678619
3_1,6,QPN 034,Đầu công viên Gia Định,Đang khai thác,Nhà chờ,Hoàng Minh Giám,Đối diện cây xanh số 7,No,No,10.813542,106.677895
3_1,6,QPN 035,Cuối công viên Gia Định,Đang khai thác,Nhà chờ,Hoàng Minh Giám,Đối diện số 5,No,No,10.809906,106.674741
3_1,6,QPN 053,Đầu Đường Đào Duy Anh,Đang khai thác,Trụ dừng,Đào Duy Anh,155,No,No,10.807978,106.674057
3_1,6,QPN 054,Cuối Đường Đào Duy Anh,Đang khai thác,Nhà chờ,Đào Duy Anh,7-9,No,No,10.805891,106.677177
3_1,6,QPN 023,Ngã ba Đào Duy Anh,Đang khai thác,Trụ dừng,Hồ Văn Huê,129,No,No,10.804858,106.677729
3_1,6,QPN 024,Tháp Nước,Đang khai thác,Trụ dừng,Hồ Văn Huê,43B,No,No,10.802434,106.676366
3_1,6,QPN 025,Trung tâm hội nghị tiệc cưới White Palace,Đang khai thác,Trụ dừng,Hồ Văn Huê,1B,No,No,10.800074,106.675025
3_1,6,QPN 009,Ngã Tư Phú Nhuận,Đang khai thác,Trụ dừng,Hoàng Văn Thụ,59,No,No,10.799088,106.679354
3_1,6,Q3 029,Trần Quang Khải,Đang khai thác,Trụ dừng,Hai Bà Trưng,423 A,No,No,10.790939,106.68795
3_1,6,Q3 030,Chợ Tân Định,Đang khai thác,Trụ dừng,Hai Bà Trưng,Đối diện 274,No,No,10.788972,106.690445
3_1,6,Q3 031,Công viên Lê Văn Tám,Đang khai thác,Trụ dừng,Hai Bà Trưng,243,No,No,10.787174,106.692653
3_1,6,Q3 032,Trần Cao Vân,Đang khai thác,Trụ dừng,Hai Bà Trưng,157,No,No,10.784023,106.696625
3_1,6,Q1 065,Lê Duẩn,Đang khai thác,Nhà chờ,Hai Bà Trưng,Đối diện Lãnh sự quán Pháp,No,No,10.78191,106.69902
3_1,6,Q1 066,Bệnh viện Nhi Đồng 2,Đang khai thác,Nhà chờ,Hai Bà Trưng,115Bis,No,No,10.779385,106.701744
3_1,6,Q1 067,Nhà Hát Thành Phố,Đang khai thác,Trụ dừng,Hai Bà Trưng,101,No,No,10.777873,106.70351
3_1,6,Q1 068,Công Trường Mê Linh,Đang khai thác,Trụ dừng,Hai Bà Trưng,Đối diện 2,No,No,10.775807,106.705734
3_1,6,Q1 031,Bến Bạch Đằng,Đang khai thác,Trụ dừng,Tôn Đức Thắng,21,No,No,10.773299,106.706359
3_1,6,Q1 020,Cục Hải Quan Thành Phố,Đang khai thác,Nhà chờ,Hàm Nghi,2-4,No,No,10.770885,106.705549
3_1,6,Q1 021,Chợ Cũ,Đang khai thác,Nhà chờ,Hàm Nghi,84,No,No,10.77098,106.703027
3_1,6,Q1 022,Trường Cao Thắng,Đang khai thác,Nhà chờ,Hàm Nghi,122,No,No,10.771054,106.701676
3_1,6,Q1 023,Công ty Đường sắt,Đang khai thác,Nhà chờ,Hàm Nghi,136,No,No,10.771163,106.699356
3_1,6,Q1TC1C,Bến Thành C,Đang khai thác,Bến xe,Phạm Ngũ Lão,Bến Thành,Yes,Yes,10.770787,106.698532
3_1,6,Q1 044,Trường Ernst Thalmann,Đang khai thác,Nhà chờ,Phạm Ngũ Lão,Đối diện 103,No,No,10.769773,106.695839
3_1,6,Q1 045,Đề Thám,Đang khai thác,Nhà chờ,Phạm Ngũ Lão,Đối diện 171,No,No,10.769035,106.693983
3_1,6,Q1 046,Chợ Thái Bình,Đang khai thác,Nhà chờ,Phạm Ngũ Lão,Đối diện 361,No,No,10.767249,106.689616
3_1,6,BX 01,TĐH xe buýt Sài Gòn,Đang khai thác,Bến xe,Lê Lai,TĐH xe buýt Sài Gòn- CV 23/9,Yes,Yes,10.767676,106.689362
15_1,29,BX41,Bến xe An Sương,Đang khai thác,Bến xe,Quốc lộ 22,Bến xe An Sương,Yes,Yes,10.843737602234,106.61337280273
15_1,29,Q12 134,Chợ Chiều,Đang khai thác,Nhà chờ,Trường Chinh,601,No,No,10.841209,106.615925
15_1,29,Q12 135,Bitis,Đang khai thác,Nhà chờ,Trường Chinh,487,No,No,10.837863,106.618044
15_1,29,Q12 136,Chùa Lạc Quang,Đang khai thác,Nhà chờ,Trường Chinh,257,No,No,10.834623,106.620163
15_1,29,Q12 137,Chùa Vĩnh Phước,Đang khai thác,Nhà chờ,Trường Chinh,Chùa Vĩnh Phước,No,No,10.831836,106.621928
15_1,29,Q12 138,Siêu thị Chợ Lớn,Đang khai thác,Nhà chờ,Trường Chinh,113,No,No,10.82898,106.623768
15_1,29,Q12 139,Thiên Hòa,Đang khai thác,Nhà chờ,Trường Chinh,Kế 2/6B,No,No,10.82624,106.62586
15_1,29,QTP 010,Trạm Dệt Thành Công,Đang khai thác,Nhà chờ,Trường Chinh,8,No,No,10.822315,106.629825
15_1,29,QTP 011,Trạm KCN Tân Bình,Đang khai thác,Nhà chờ,Trường Chinh,881,No,No,10.819386,106.630615
15_1,29,QTP 012,Trạm Coopmart Thắng Lợi,Đang khai thác,Nhà chờ,Trường Chinh,2,No,No,10.817114,106.631472
15_1,29,QTP 013,Chế Lan Viên,Đang khai thác,Nhà chờ,Trường Chinh,28/7B,No,No,10.812878,106.632748
15_1,29,QTP 014,Trạm Đài Liệt Sỹ,Đang khai thác,Nhà chờ,Trường Chinh,1/3,No,No,10.808209,106.634262
15_1,29,QTB 118,Thượng Uyển,Đang khai thác,Nhà chờ,Cộng Hòa,680 (Thượng Uyển),No,No,10.806144,106.636055
15_1,29,QTB 119,Tân Kỳ Tân Quý,Đang khai thác,Trụ dừng,Cộng Hòa,401,No,No,10.803541,106.637887
15_1,29,QTB 120,Trạm ETown,Đang khai thác,Nhà chờ,Cộng Hòa,364 (công ty Ree),No,No,10.802371,106.640253
15_1,29,QTB 121,Ngã ba Bình Giã,Đang khai thác,Trụ dừng,Cộng Hòa,303,No,No,10.802055,106.644292
15_1,29,QTB 122,Hoàng Hoa Thám,Đang khai thác,Nhà chờ,Cộng Hòa,19A (Công ty Lô Hội),No,No,10.801544,106.650413
15_1,29,QTB 123,Pico Plaza,Đang khai thác,Nhà chờ,Cộng Hòa,20Bis,No,No,10.801254,106.653637
15_1,29,QTB 124,Trạm Út tịch,Đang khai thác,Trụ dừng,Cộng Hòa,35-37,No,No,10.800985,106.656679
15_1,29,QTB 125,Lăng Cha Cả,Đang khai thác,Nhà chờ,Cộng Hòa,Đối diện 58 (Siêu thị Maximart),No,No,10.800833,106.658819
15_1,29,QTB 036,Phạm Văn Hai,Đang khai thác,Nhà chờ,Hoàng Văn Thụ,259,No,No,10.800469,106.663578
15_1,29,QTB 037,Trạm Bảo Tàng Miền Đông,Đang khai thác,Nhà chờ,Hoàng Văn Thụ,247,No,No,10.800237,106.666372
15_1,29,QPN 006,Siêu Thị Big C,Đang khai thác,Trụ dừng,Hoàng Văn Thụ,241,No,No,10.799942,106.669462
15_1,29,QPN 007,Khách Sạn Tân Sơn Nhất,Đang khai thác,Trụ dừng,Hoàng Văn Thụ,217,No,No,10.799805,106.670873
15_1,29,QPN 008,Công an Phú Nhuận,Đang khai thác,Trụ dừng,Hoàng Văn Thụ,189,No,No,10.799542,106.673818
15_1,29,QPN 009,Ngã Tư Phú Nhuận,Đang khai thác,Trụ dừng,Hoàng Văn Thụ,59,No,No,10.799088,106.679354
15_1,29,QPN 015,Ngã tư Phan Xích Long,Đang khai thác,Trụ dừng,Phan Đăng Lưu,171,No,No,10.800416,106.681741
15_1,29,QPN 016,Ngã Tư Thích Quảng Đức,Đang khai thác,Trụ dừng,Phan Đăng Lưu,141 - 143,No,No,10.802287,106.683689
15_1,29,QPN 017,Đại học Văn Hiến,Đang khai thác,Trụ dừng,Phan Đăng Lưu,109,No,No,10.803847,106.686108
15_1,29,QPN 018,Bệnh Viện Phước An,Đang khai thác,Trụ dừng,Phan Đăng Lưu,81 - 83,No,No,10.803615,106.687916
15_1,29,QBTH 113,Công an PCCC,Đang khai thác,Trụ dừng,Phan Đăng Lưu,45,No,No,10.803188,106.691371
15_1,29,QBTH 114,Lăng Ông Bà Chiểu,Đang khai thác,Nhà chờ,Phan Đăng Lưu,1,No,No,10.802408,106.697159
15_1,29,QBTH 006,Chợ Bà Chiểu,Đang khai thác,Trụ dừng,Bạch Đằng,473C,No,No,10.802893,106.699471
15_1,29,QBTH 007,Tòa Án nhân dân Quận Bình Thạnh,Đang khai thác,Trụ dừng,Bạch Đằng,449,No,No,10.803615,106.701204
15_1,29,QBTH 008,Chùa Bồ Đề,Đang khai thác,Trụ dừng,Bạch Đằng,375,No,No,10.803293,106.703988
15_1,29,QBTH 009,Nhà thờ Hàng Xanh,Đang khai thác,Trụ dừng,Bạch Đằng,235,No,No,10.803077,106.706713
15_1,29,QBTH 010,Chợ Hàng Xanh,Đang khai thác,Trụ dừng,Bạch Đằng,39,No,No,10.802793,106.710511
15_1,29,QBTH 059,Đại học Hutech,Đang khai thác,Ô sơn,Điện Biên Phủ,500-502,No,No,10.800827,106.714255
15_1,29,QBTH 058,Khu Du lịch Văn Thánh,Đang khai thác,Nhà chờ,Điện Biên Phủ,600,No,No,10.799531,106.717404
15_1,29,QBTH 057,Cầu Sài Gòn,Đang khai thác,Trụ dừng,Điện Biên Phủ,658,No,No,10.798525,106.719496
15_1,29,Q2 071,Cầu Đen,Đang khai thác,Nhà chờ,Xa Lộ Hà Nội,794,No,No,10.799978,106.7342
15_1,29,Q2 072,Thảo Điền,Đang khai thác,Nhà chờ,Xa Lộ Hà Nội,Đối diện ngã 3 Thảo Điền,No,No,10.800838,106.738899
15_1,29,Q2 073,Metro Quận 2,Đang khai thác,Nhà chờ,Xa Lộ Hà Nội,170,No,No,10.801584,106.742928
15_1,29,Q2 074,Cát Lái,Đang khai thác,Nhà chờ,Xa Lộ Hà Nội,Khu dân cư Estella,No,No,10.802592,106.748089
15_1,29,Q9 210,Xi măng hà tiên - trạm thu phí,Đang khai thác,Nhà chờ,Xa Lộ Hà Nội,249B,No,No,10.819206,106.758394
15_1,29,Q9 211,Ngã 4 Tây Hòa (RMK),Đang khai thác,Ô sơn,Xa Lộ Hà Nội,185A,No,No,10.825972,106.760775
15_1,29,Q9 212,Trạm xây dựng,Đang khai thác,Nhà chờ,Xa Lộ Hà Nội,354A,No,No,10.829955,106.76312
15_1,29,Q9 213,Khu QLGTDT số 2,Đang khai thác,Nhà chờ,Xa Lộ Hà Nội,Khu QLGTĐT số 2,No,No,10.833249,106.764778
15_1,29,Q9 214,Ngã 4 Bình Thái,Đang khai thác,Nhà chờ,Xa Lộ Hà Nội,Kho 71,No,No,10.836162,106.76666
15_1,29,Q9 215,UBND quận 9,Đang khai thác,Nhà chờ,Xa Lộ Hà Nội,1B,No,No,10.840466,106.769074
15_1,29,Q9 216,Bê tông Hải Âu,Đang khai thác,Trụ dừng,Xa Lộ Hà Nội,Bê tông Hải Âu,No,No,10.843834,106.77079
15_1,29,Q9 217,Ngã 4 Thủ Đức,Đang khai thác,Ô sơn,Xa Lộ Hà Nội,712,No,No,10.847142,106.772974
15_1,29,QTD 084,Đại học Sư Phạm Kỹ Thuật,Đang khai thác,Trụ dừng,Lê Văn Chí,116/6,No,No,10.850485,106.774025
15_1,29,QTD 085,Nhà máy nước Thủ Đức,Đang khai thác,Trụ dừng,Lê Văn Chí,Nhà máy nước Thủ Đức,No,No,10.853954,106.773173
15_1,29,QTD 094,Ngã ba Lê Văn Chí,Đang khai thác,Trụ dừng,Hoàng Diệu 2,225,No,No,10.854117,106.77195
15_1,29,QTD 095,Tô Vĩnh Diện,Đang khai thác,Trụ dừng,Hoàng Diệu 2,151,No,No,10.854728,106.76843
15_1,29,QTD 226,Hoàng Diệu 2,Đang khai thác,Ô sơn,Đường số 7,40,No,No,10.857191,106.766396
15_1,29,QTD 103,Ngã ba Linh Trung đường số 6,Đang khai thác,Ô sơn,Đường số 6,94A,No,No,10.860866,106.768479
15_1,29,QTD 104,Ngã ba đường 14,Đang khai thác,Ô sơn,Đường Số 6,62-64,No,No,10.860864,106.770905
15_1,29,QTD 105,Đường số 14,Đang khai thác,Trụ dừng,Đường số 14,18,No,No,10.861798,106.772301
15_1,29,QTD 171,ĐH Kinh tế Luật,Đang khai thác,Nhà chờ,Quốc lộ 1,Đối diện 665,No,No,10.869306,106.776724
15_1,29,QTD 172,Công ty điện tử Samsung,Đang khai thác,Nhà chờ,Quốc lộ 1,Công ty điện tử Samsung,No,No,10.868691,106.778656
15_1,29,QTD 173,ĐH Nông Lâm,Đang khai thác,Nhà chờ,Quốc lộ 1,Cột điện SI 2,No,No,10.867122,106.787277
15_1,29,BX73,Đại học Nông Lâm,Đang khai thác,Bến xe,Quốc lộ 1,Bến xe buýt ĐH Nông Lâm,Yes,Yes,10.868183135986,106.78744506836
15_1,30,BX73,Đại học Nông Lâm,Đang khai thác,Bến xe,Quốc lộ 1,Bến xe buýt ĐH Nông Lâm,Yes,Yes,10.868183135986,106.78744506836
15_1,30,QTD 181,ĐH Nông Lâm,Đang khai thác,Nhà chờ,Quốc lộ 1,Kế 21,No,No,10.867404,106.787265
15_1,30,QTD 182,Công ty điện tử Samsung,Đang khai thác,Trụ dừng,Quốc lộ 1,Kế 59/6,No,No,10.867867,106.782201
15_1,30,QTD 183,Đại học Kinh tế -Luật,Đang khai thác,Trụ dừng,Quốc lộ 1,Đại học Kinh tế -Luật,No,No,10.869274,106.777909
15_1,30,QTD 100,Đường số 14,Đang khai thác,Trụ dừng,Đường số 14,Trụ  điện NB55,No,No,10.861588,106.772079
15_1,30,QTD 101,Ngã ba đường 14,Đang khai thác,Ô sơn,Đường số 6,Trụ điện SB61,No,No,10.861013,106.770689
15_1,30,QTD 102,Ngã ba Linh Trung đường số 6,Đang khai thác,Ô sơn,Đường số 6,Đối diện 94,No,No,10.860602,106.767921
15_1,30,QTD 098,Tô Vĩnh Diện,Đang khai thác,Trụ dừng,Hoàng Diệu 2,198,No,No,10.854312,106.768898
15_1,30,QTD 099,Ngã ba Lê Văn Chí,Đang khai thác,Trụ dừng,Hoàng Diệu 2,Đối diện 233,No,No,10.854164,106.772385
15_1,30,QTD 092,Nhà máy nước Thủ Đức,Đang khai thác,Trụ dừng,Lê Văn Chí,Đối diện Nhà máy nước Thủ Đức,No,No,10.853545,106.773216
15_1,30,QTD 093,Đại học Sư Phạm Kỹ Thuật,Đang khai thác,Trụ dừng,Lê Văn Chí,Đối diện 111/4,No,No,10.850766,106.773994
15_1,30,QTD 077,Ngã tư Thủ Đức,Đang khai thác,Nhà chờ,Xa Lộ Hà Nội,Đối diện Coopmart,No,No,10.84828,106.77299
15_1,30,QTD 078,Betong Hải Âu,Đang khai thác,Trụ dừng,Xa Lộ Hà Nội,Đối diện Betong Hải Âu,No,No,10.844297,106.77063
15_1,30,QTD 079,UBND Quận 9,Đang khai thác,Nhà chờ,Xa Lộ Hà Nội,126,No,No,10.840745,106.768607
15_1,30,QTD 080,Ngã 4 Bình Thái,Đang khai thác,Nhà chờ,Xa Lộ Hà Nội,Đối diện 592C,No,No,10.834945,106.765244
15_1,30,QTD 081,Công ty truyền tải điện 4,Đang khai thác,Nhà chờ,Xa Lộ Hà Nội,Công ty truyền tải điện 4,No,No,10.831214,106.763195
15_1,30,QTD 082,Ngã 4 Tây Hòa (RMK),Đang khai thác,Nhà chờ,Xa Lộ Hà Nội,Nhà máy thép Thủ Đức,No,No,10.825366,106.759998
15_1,30,QTD 083,Xi măng Hà Tiên,Đang khai thác,Nhà chờ,Xa Lộ Hà Nội,Xi măng Hà Tiên 1,No,No,10.820576,106.758142
15_1,30,Q2 075,Cát Lái,Đang khai thác,Nhà chờ,Xa Lộ Hà Nội,Đối diện Esstella,No,No,10.802925,106.747948
15_1,30,Q2 076,Metro Quận 2,Đang khai thác,Nhà chờ,Xa Lộ Hà Nội,655,No,No,10.802134,106.7434
15_1,30,Q2 077,Thảo Điền,Đang khai thác,Nhà chờ,Xa Lộ Hà Nội,Ngã ba Thảo Điền,No,No,10.801309,106.738762
15_1,30,Q2 078,Cầu Đen,Đang khai thác,Trụ dừng,Xa Lộ Hà Nội,Đối diện Cầu Đen,No,No,10.800451,106.73436
15_1,30,QBTH 056,Cầu Sài Gòn,Đang khai thác,Trụ dừng,Điện Biên Phủ,24(597),No,No,10.798893,106.719571
15_1,30,QBTH 055,Khu Du lịch Văn Thánh,Đang khai thác,Nhà chờ,Điện Biên Phủ,152/72c(559),No,No,10.800274,106.717227
15_1,30,QBTH 054,Đại học Hutech,Đang khai thác,Trụ dừng,Điện Biên Phủ,483,No,No,10.801228,106.714856
15_1,30,QBTH 053,Cây xăng dầu,Đang khai thác,Trụ dừng,Điện Biên Phủ,419,No,No,10.801697,106.712834
15_1,30,QBTH 001,Chợ Hàng Xanh,Đang khai thác,Trụ dừng,Bạch Đằng,18,No,No,10.802998,106.710441
15_1,30,QBTH 002,Nhà thờ Hàng Xanh,Đang khai thác,Trụ dừng,Bạch Đằng,96,No,No,10.803177,106.708032
15_1,30,QBTH 003,Chùa Bồ Đề,Đang khai thác,Trụ dừng,Bạch Đằng,246,No,No,10.803483,106.704015
15_1,30,QBTH 004,Tòa Án nhân dân Quận Bình Thạnh,Đang khai thác,Trụ dừng,Bạch Đằng,288,No,No,10.803873,106.701187
15_1,30,QBTH 005,Chợ Bà Chiểu,Đang khai thác,Trụ dừng,Bạch Đằng,368,No,No,10.803125,106.699374
15_1,30,QBTH 115,UBND Quận Bình Thạnh,Đang khai thác,Trụ dừng,Phan Đăng Lưu,6-8,No,No,10.802819,106.695786
15_1,30,QBTH 116,Bệnh Viện Gia Định,Đang khai thác,Nhà chờ,Phan Đăng Lưu,10,No,No,10.803119,106.693543
15_1,30,QBTH 117,PCCC quận Bình Thạnh,Đang khai thác,Nhà chờ,Phan Đăng Lưu,14-16,No,No,10.803362,106.691741
15_1,30,QPN 019,Bệnh viện Phước An,Đang khai thác,Trụ dừng,Phan Đăng Lưu,36A,No,No,10.803878,106.687637
15_1,30,QPN 020,Đại học Văn Hiến,Đang khai thác,Trụ dừng,Phan Đăng Lưu,68,No,No,10.804078,106.686119
15_1,30,QPN 021,Ngã Tư Thích Quảng Đức,Đang khai thác,Trụ dừng,Phan Đăng Lưu,124,No,No,10.802529,106.683608
15_1,30,QPN 022,Ngã tư Phan Xích Long,Đang khai thác,Trụ dừng,Phan Đăng Lưu,172,No,No,10.80088,106.681892
15_1,30,QPN 010,Ngã Tư Phú Nhuận,Đang khai thác,Trụ dừng,Hoàng Văn Thụ,24,No,No,10.799325,106.679236
15_1,30,QPN 011,Siêu Thị Big C,Đang khai thác,Nhà chờ,Hoàng Văn Thụ,202,No,No,10.800153,106.669559
15_1,30,QTB 099,Cổng trước SVĐ Quân Khu 7,Đang khai thác,Nhà chờ,Phan Đình Giót,A2 (Sân vận động Quân khu 7),No,No,10.800848,106.66678
15_1,30,QTB 108,Công viên Hoàng Văn Thụ,Đang khai thác,Nhà chờ,Phan Thúc Duyện,Công viên Hoàng Văn Thụ,No,No,10.802403,106.664221
15_1,30,QTB 107,Lăng Cha Cả,Đang khai thác,Nhà chờ,Trần Quốc Hoàn,20,No,No,10.801365,106.662312
15_1,30,QTB 110,Siêu thị Maximark Cộng Hòa,Đang khai thác,Trụ dừng,Cộng Hòa,60,No,No,10.801038,106.659168
15_1,30,QTB 111,Nhà hát Quân Đội,Đang khai thác,Trụ dừng,Cộng Hòa,138 (Kế nhà hát Quân đội),No,No,10.801238,106.656754
15_1,30,QTB 112,Ngân hàng Quân đội,Đang khai thác,Nhà chờ,Cộng Hòa,Tiệc cưới Hương Sen,No,No,10.801412,106.654817
15_1,30,QTB 113,Công ty Lô Hội,Đang khai thác,Trụ dừng,Cộng Hòa,184,No,No,10.801728,106.651127
15_1,30,QTB 114,Ngã tư Hoàng Hoa Thám,Đang khai thác,Trụ dừng,Cộng Hòa,304,No,No,10.802102,106.646953
15_1,30,QTB 115,Ngã ba Bình Giã,Đang khai thác,Trụ dừng,Cộng Hòa,390,No,No,10.802276,106.644512
15_1,30,QTB 116,Lê Văn Huân,Đang khai thác,Trụ dừng,Cộng Hòa,496,No,No,10.802571,106.640967
15_1,30,QTBBXCH,"592, Cộng Hòa",Chưa khai thác,Ô sơn,Cộng Hòa,592,No,No,10.804060003258,106.63784712553
15_1,30,QTB 117,Thượng Uyển,Đang khai thác,Nhà chờ,Cộng Hòa,660 (kế 592),No,No,10.806313,106.636192
15_1,30,QTB 075,Mũi tàu Cộng Hòa,Đang khai thác,Trụ dừng,Trường Chinh,19B1,No,No,10.808078,106.634696
15_1,30,QTB 076,Hoa Kiểng Thành Hưng,Đang khai thác,Nhà chờ,Trường Chinh,9B,No,No,10.811695,106.633499
15_1,30,QTB 077,Tân Sơn,Đang khai thác,Nhà chờ,Trường Chinh,720,No,No,10.814638,106.632584
15_1,30,QTB 078,Siêu thị Coop Mart Thắng Lợi,Đang khai thác,Nhà chờ,Trường Chinh,792 (25/19),No,No,10.817541,106.631691
15_1,30,QTB 079,Khu Công Nghiệp tân Bình,Đang khai thác,Nhà chờ,Trường Chinh,906,No,No,10.821644,106.630447
15_1,30,Q12 128,Thiên Hòa,Đang khai thác,Nhà chờ,Trường Chinh,1/17A,No,No,10.82673,106.626096
15_1,30,Q12 129,Siêu thị Chợ Lớn,Đang khai thác,Nhà chờ,Trường Chinh,189/4,No,No,10.82868,106.624594
15_1,30,Q12 130,Chùa Vĩnh Phước,Đang khai thác,Nhà chờ,Trường Chinh,258,No,No,10.832547,106.622116
15_1,30,Q12 132,Chùa Lạc Quang,Đang khai thác,Nhà chờ,Trường Chinh,408,No,No,10.83514,106.620464
15_1,30,Q12 131,Bitis,Đang khai thác,Nhà chờ,Trường Chinh,640,No,No,10.83819,106.618495
15_1,30,Q12 133,Chợ Chiều,Đang khai thác,Nhà chờ,Trường Chinh,774A,No,No,10.841436,106.616457
15_1,30,Q12 122,Bến xe An Sương,Đang khai thác,Trụ dừng,Quốc lộ 22,116,No,No,10.844971,106.614026
15_1,30,Q12 123,Trạm cây xăng,Đang khai thác,Trụ dừng,Quốc lộ 22,128,No,No,10.845487,106.61371
15_1,30,Q12 124,Cư xá Bà Điểm,Đang khai thác,Trụ dừng,Quốc lộ 22,7C,No,No,10.845845,106.613474
15_1,30,BX41,Bến xe An Sương,Đang khai thác,Bến xe,Quốc lộ 22,Bến xe An Sương,Yes,Yes,10.843737602234,106.61337280273
26_1,1,BX44,Bến xe Miền Đông,Đang khai thác,Bến xe,Đinh Bộ Lĩnh,Bến xe Miền Đông,Yes,Yes,10.814733,106.711294
26_1,1,QBTH 071,Ngã năm Liệt Sĩ,Đang khai thác,Trụ dừng,Nguyễn Xí,222/4 Ter,No,No,10.81204,106.710624
26_1,1,QBTH 131,Chợ Phường 25,Đang khai thác,Trụ dừng,Ung Văn Khiêm,đối diện 134/4A,No,No,10.808304,106.714674
26_1,1,QBTH 034,Đại học Ngoại Thương,Đang khai thác,Trụ dừng,Đường D2,8A,No,No,10.806602,106.716047
26_1,1,QBTH 035,Trường ĐH Giao thông Vận tải Tp. HCM,Đang khai thác,Trụ dừng,Đường D2,74 Cư xá Văn Thánh Bắc,No,No,10.804795,106.715875
26_1,1,QBTH 054,Đại học Hutech,Đang khai thác,Trụ dừng,Điện Biên Phủ,483,No,No,10.801228,106.714856
26_1,1,QBTH 053,Cây xăng dầu,Đang khai thác,Trụ dừng,Điện Biên Phủ,419,No,No,10.801697,106.712834
26_1,1,QBTH 130,Trường trung học Gia Định,Đang khai thác,Trụ dừng,Xô Viết Nghệ Tĩnh,221,No,No,10.79981,106.711037
26_1,1,QBTH 129,Trường Tiểu học Hồng Hà,Đang khai thác,Nhà chờ,Xô Viết Nghệ Tĩnh,153,No,No,10.797328,106.710591
26_1,1,QBTH 128,Ngã ba Nguyễn Cửu Vân,Đang khai thác,Trụ dừng,Xô Viết Nghệ Tĩnh,151,No,No,10.79511,106.709443
26_1,1,QBTH 127,Nhà thờ Thị Nghè,Đang khai thác,Trụ dừng,Xô Viết Nghệ Tĩnh,79,No,No,10.793661,106.708054
26_1,1,Q1 098,Thảo Cầm Viên,Đang khai thác,Nhà chờ,Nguyễn Thị Minh Khai,2A,No,No,10.790694,106.705259
26_1,1,Q1 099,Đài truyền hình,Đang khai thác,Nhà chờ,Nguyễn Thị Minh Khai,Đối diện 9,No,No,10.787157,106.702011
26_1,1,Q1 100,nhà thờ Mạc Ti Nho,Đang khai thác,Nhà chờ,Nguyễn Thị Minh Khai,16A,No,No,10.786397,106.701294
26_1,1,Q1 101,Phùng Khắc Khoan,Đang khai thác,Trụ dừng,Phùng Khắc Khoan,2 - 4,No,No,10.784048,106.698586
26_1,1,Q3 085,Hồ Con Rùa,Đang khai thác,Trụ dừng,Trần Cao Vân,24 - 26,No,No,10.783314,106.696411
26_1,1,Q3 105,Sân Phan Đình Phùng,Đang khai thác,Nhà chờ,Võ Văn Tần,8,No,No,10.781172,106.694402
26_1,1,Q3 106,Bảo tàng chiến tranh,Đang khai thác,Nhà chờ,Võ Văn Tần,28,No,No,10.779143,106.69254
26_1,1,Q3 107,Trần Quốc Thảo,Đang khai thác,Nhà chờ,Võ Văn Tần,44,No,No,10.777889,106.691365
26_1,1,Q3 108,Đại học Mở thành phố HCM,Đang khai thác,Trụ dừng,Võ Văn Tần,62,No,No,10.776418,106.69004
26_1,1,Q3 005,Nguyễn Thị Minh Khai,Đang khai thác,Trụ dừng,Bà Huyện Thanh Quan,17,No,No,10.775102,106.690186
26_1,1,Q3 069,Cách Mạng tháng 8,Đang khai thác,Trụ dừng,Nguyễn Thị Minh Khai,284,No,No,10.773112,106.688812
26_1,1,Q3 070,Tôn Thất Tùng,Đang khai thác,Trụ dừng,Nguyễn Thị Minh Khai,414,No,No,10.77079,106.686634
26_1,1,Q3 071,Bệnh viện Từ Dũ,Đang khai thác,Trụ dừng,Nguyễn Thị Minh Khai,436,No,No,10.768946,106.684883
26_1,1,Q3 072,Hội Chữ thập đỏ thành phố,Đang khai thác,Nhà chờ,Nguyễn Thị Minh Khai,464 - 466,No,No,10.767691,106.683693
26_1,1,Q3 073,Nhà sách Minh Khai,Đang khai thác,Trụ dừng,Nguyễn Thị Minh Khai,488,No,No,10.766416,106.682428
26_1,1,Q3 037,Nhà hàng Sinh Đôi,Đang khai thác,Nhà chờ,Lý Thái Tổ,120,No,No,10.765963,106.680363
26_1,1,Q3 038,Nguyễn Đình Chiểu,Đang khai thác,Trụ dừng,Lý Thái Tổ,170,No,No,10.76668,106.678099
26_1,1,Q3 039,Hồ Thị Kỷ,Đang khai thác,Biển treo,Lý Thái Tổ,306,No,No,10.767423,106.675664
26_1,1,Q10 029,"Chợ Phường 10, Quận 10",Đang khai thác,Ô sơn,Lý Thái Tổ,430,No,No,10.767865,106.673051
26_1,1,Q10 030,Bện viện Nhi Đồng 1,Đang khai thác,Nhà chờ,Lý Thái Tổ,Bệnh viện Nhi đồng 1,No,No,10.768029,106.669739
26_1,1,Q10 008,Nguyễn Kim,Đang khai thác,Trụ dừng,Đường 3/2,626-628,No,No,10.764972,106.661743
26_1,1,Q11 001,Nhà sách Phú Thọ,Đang khai thác,Nhà chờ,Đường 3/2,940 (6B),No,No,10.763115,106.658409
26_1,1,Q11 002,Lãnh Binh Thăng,Đang khai thác,Trụ dừng,Đường 3/2,970,No,No,10.761842,106.65603
26_1,1,Q11 003,Chợ Thiết,Đang khai thác,Trụ dừng,Đường 3/2,1114A-1116A,No,No,10.760535,106.653557
26_1,1,Q11 004,Xóm Đất,Đang khai thác,Nhà chờ,Đường 3/2,1196,No,No,10.758648,106.650156
26_1,1,Q11 005,Đội Giao Thông Phú Lâm,Đang khai thác,Trụ dừng,Đường 3/2,1274,No,No,10.757357,106.647838
26_1,1,Q11 006,Chùa Phụng Sơn,Đang khai thác,Trụ dừng,Đường 3/2,1354,No,No,10.756348,106.646034
26_1,1,Q11 007,Trường Nguyễn Thi,Đang khai thác,Ô sơn,Đường 3/2,1456,No,No,10.755207,106.643858
26_1,1,Q11 097,Chùa Huê Lâm,Đang khai thác,Ô sơn,Hồng Bàng,690 (138),No,No,10.754558,106.641229
26_1,1,Q11 098,Tân Hóa,Đang khai thác,Trụ dừng,Hồng Bàng,786,No,No,10.75477,106.638428
26_1,1,Q6 038,Trường Mạc Đỉnh Chi,Đang khai thác,Biển treo,Hồng Bàng,832-834,No,No,10.754732,106.635574
26_1,1,Q6 044,Vòng xoay Phú Lâm,Đang khai thác,Trụ dừng,Kinh Dương Vương,528,No,No,10.753346,106.633365
26_1,1,Q6 046,Hồ Bơi Phú Lâm,Đang khai thác,Trụ dừng,Kinh Dương Vương,94-96,No,No,10.749589,106.628435
26_1,1,Q6 047,Công Viên Phú Lâm,Đang khai thác,Nhà chờ,Kinh Dương Vương,Đối diện 907,No,No,10.746384,106.624525
26_1,1,QBT 011,Dương Tự Quản,Đang khai thác,Trụ dừng,Kinh Dương Vương,212-214,No,No,10.744746,106.622475
26_1,1,QBT 012,Chợ An Lạc,Đang khai thác,Trụ dừng,Kinh Dương Vương,358-360,No,No,10.741973,106.619096
26_1,1,BX 46,Bến xe Miền Tây,Đang khai thác,Bến xe,Kinh Dương Vương,Bến xe Miền Tây,Yes,Yes,10.740705,106.618317
26_1,2,BX 46,Bến xe Miền Tây,Đang khai thác,Bến xe,Kinh Dương Vương,Bến xe Miền Tây,Yes,Yes,10.740705,106.618317
26_1,2,QBT 009,"49-51 (317), Kinh Dương Vương",Chưa khai thác,Ô sơn,Kinh Dương Vương,49-51 (317),No,No,10.743396,106.62136
26_1,2,QBT 010,Dương Tự Quản,Đang khai thác,Trụ dừng,Kinh Dương Vương,7,No,No,10.744919,106.623162
26_1,2,Q6 048,Công viên Phú Lâm,Đang khai thác,Trụ dừng,Kinh Dương Vương,799 (209),No,No,10.74776,106.626332
26_1,2,Q6 049,Hồ Bơi Phú Lâm,Đang khai thác,Trụ dừng,Kinh Dương Vương,685 (157),No,No,10.748877,106.627727
26_1,2,Q6 050,Cư xá Phú Lâm,Đang khai thác,Trụ dừng,Kinh Dương Vương,93,No,No,10.751201,106.630753
26_1,2,Q6 051,Vòng xoay Phú Lâm,Đang khai thác,Trụ dừng,Kinh Dương Vương,21A-21B,No,No,10.753246,106.633521
26_1,2,Q6 039,Cầu Ông Buông,Đang khai thác,Trụ dừng,Hồng Bàng,963,No,No,10.754548,106.637995
26_1,2,Q6 040,Ngân hàng ACB,Đang khai thác,Trụ dừng,Hồng Bàng,871,No,No,10.754295,106.641245
26_1,2,Q11 008,Trường Nguyễn Thi,Đang khai thác,Trụ dừng,Đường 3/2,1559,No,No,10.755201,106.644314
26_1,2,Q11 009,Chùa Phụng Sơn,Đang khai thác,Trụ dừng,Đường 3/2,1479,No,No,10.756082,106.645993
26_1,2,Q11 010,Hàn Hải Nguyên,Đang khai thác,Trụ dừng,Đường 3/2,1375,No,No,10.757257,106.648171
26_1,2,Q11 011,Xóm Đất,Đang khai thác,Trụ dừng,Đường 3/2,1293,No,No,10.758469,106.650301
26_1,2,Q11 012,"Công an P12, Q11",Đang khai thác,Trụ dừng,Đường 3/2,1231,No,No,10.759454,106.652108
26_1,2,Q11 013,Chợ Thiết,Đang khai thác,Trụ dừng,Đường 3/2,1163,No,No,10.760371,106.653763
26_1,2,Q11 014,Lê Đại Hành,Đang khai thác,Trụ dừng,Đường 3/2,1007 (1029),No,No,10.761562,106.656006
26_1,2,Q11 015,Trung tâm chăm sóc sức khỏe sinh sản,Đang khai thác,Nhà chờ,Đường 3/2,957,No,No,10.76245,106.657539
26_1,2,Q10 009,Nguyễn Kim,Đang khai thác,Trụ dừng,Đường 3/2,781,No,No,10.76434,106.661078
26_1,2,Q10 010,Nhà thờ tin lành Nguyễn Tri Phương,Đang khai thác,Trụ dừng,Đường 3/2,635,No,No,10.766232,106.664627
26_1,2,Q10 031,Bệnh viện nhi đồng 1,Đang khai thác,Trụ dừng,Lý Thái Tổ,359,No,No,10.767765,106.67038
26_1,2,Q10 032,"Chợ P10, Q10",Đang khai thác,Ô sơn,Lý Thái Tổ,183,No,No,10.767623,106.673357
26_1,2,Q10 033,Hồ Thị Kỳ,Đang khai thác,Ô sơn,Lý Thái Tổ,93 (27B),No,No,10.767207,106.67554
26_1,2,Q10 034,Nhà Khách Chính Phủ,Đang khai thác,Nhà chờ,Lý Thái Tổ,Đối diện 180 (1B),Yes,Yes,10.766522,106.677799
26_1,2,Q10 035,Ngã 6 Cộng Hòa,Đang khai thác,Nhà chờ,Lý Thái Tổ,Đối diện 30-32,No,No,10.76571,106.680449
26_1,2,Q1 088,Phạm Viết Chánh,Đang khai thác,Nhà chờ,Nguyễn Thị Minh Khai,Đối diện 492,No,No,10.766214,106.682533
26_1,2,Q1 089,Bệnh viện Tù Dũ,Đang khai thác,Nhà chờ,Nguyễn Thị Minh Khai,Đối diện 446,No,No,10.768709,106.685024
26_1,2,Q1 090,Tôn Thất Tùng,Đang khai thác,Trụ dừng,Nguyễn Thị Minh Khai,99,No,No,10.77185,106.687943
26_1,2,Q1 091,Sở Y Tế,Đang khai thác,Nhà chờ,Nguyễn Thị Minh Khai,Đối diện 214-216,No,No,10.774179,106.690158
26_1,2,Q1 092,Nhà Văn Hóa Lao Động,Đang khai thác,Nhà chờ,Nguyễn Thị Minh Khai,Đối diện số 138,No,No,10.777097,106.692757
26_1,2,Q1 093,Pasteur,Đang khai thác,Nhà chờ,Nguyễn Thị Minh Khai,43 - 45 - 47,No,No,10.781031,106.696434
26_1,2,Q1 094,Mạc Đỉnh Chi,Đang khai thác,Trụ dừng,Nguyễn Thị Minh Khai,21,No,No,10.784191,106.699503
26_1,2,Q1 095,Đinh Tiên Hoàng,Đang khai thác,Trụ dừng,Nguyễn Thị Minh Khai,15C-15D,No,No,10.786146,106.70137
26_1,2,Q1 096,Thảo Cầm Viên,Đang khai thác,Nhà chờ,Nguyễn Thị Minh Khai,3,No,No,10.789598,106.70459
26_1,2,Q1 097,Cầu Thị Nghè,Đang khai thác,Nhà chờ,Nguyễn Thị Minh Khai,1A,No,No,10.790669,106.705597
26_1,2,QBTH 126,Nhà Thờ Thị Nghè,Đang khai thác,Nhà chờ,Xô Viết Nghệ Tĩnh,22 B,No,No,10.793418,106.708156
26_1,2,QBTH 125,Trung tâm Dưỡng Lão,Đang khai thác,Biển treo,Xô Viết Nghệ Tĩnh,138,No,No,10.796533,106.71057
26_1,2,QBTH 124,Trường trung học Gia Định,Đang khai thác,Trụ dừng,Xô Viết Nghệ Tĩnh,246,No,No,10.798999,106.711203
26_1,2,QBTH 123,Ngã Ba Hàng Xanh,Đang khai thác,Biển treo,Xô Viết Nghệ Tĩnh,338,No,No,10.803262,106.711509
26_1,2,QBTH 122,Đài Liệt sĩ,Đang khai thác,Biển treo,Xô Viết Nghệ Tĩnh,504,No,No,10.808831,106.711965
26_1,2,QBTH 135,Siêu thị Coop Mart,Đang khai thác,Trụ dừng,Quốc lộ 13,222/13A,No,No,10.810791,106.71241
26_1,2,QBTH 038,Cổng vào-Bến xe Miền Đông,Đang khai thác,Nhà chờ,Đinh Bộ Lĩnh,78/3,No,No,10.816661,106.711257
26_1,2,BX44,Bến xe Miền Đông,Đang khai thác,Bến xe,Đinh Bộ Lĩnh,Bến xe Miền Đông,Yes,Yes,10.814733,106.711294
2_1,3,BX 06,Công Trường Mê Linh,Đang khai thác,Bến xe,Thi Sách,Công trường Mê Linh,Yes,Yes,10.77679,106.705856
2_1,3,Q1 031,Bến Bạch Đằng,Đang khai thác,Trụ dừng,Tôn Đức Thắng,21,No,No,10.773299,106.706359
2_1,3,Q1 020,Cục Hải Quan Thành Phố,Đang khai thác,Nhà chờ,Hàm Nghi,2-4,No,No,10.770885,106.705549
2_1,3,Q1 021,Chợ Cũ,Đang khai thác,Nhà chờ,Hàm Nghi,84,No,No,10.77098,106.703027
2_1,3,Q1 022,Trường Cao Thắng,Đang khai thác,Nhà chờ,Hàm Nghi,122,No,No,10.771054,106.701676
2_1,3,Q1 023,Công ty Đường sắt,Đang khai thác,Nhà chờ,Hàm Nghi,136,No,No,10.771163,106.699356
2_1,3,Q1TC1A,Bến Thành A,Đang khai thác,Bến xe,Phạm Ngũ Lão,Bến Thành,Yes,Yes,10.770896,106.69854
2_1,3,Q1 044,Trường Ernst Thalmann,Đang khai thác,Nhà chờ,Phạm Ngũ Lão,Đối diện 103,No,No,10.769773,106.695839
2_1,3,Q1 123,Nguyễn Thị Nghĩa,Đang khai thác,Nhà chờ,Nguyễn Thị Nghĩa,Đối diện số 26,No,No,10.770901,106.693833
2_1,3,Q1 145,Ngã 6 Phù Đổng,Đang khai thác,Trụ dừng,Nguyễn Trãi,22,No,No,10.77097,106.69268
2_1,3,Q1 146,Tôn Thất Tùng,Đang khai thác,Trụ dừng,Nguyễn Trãi,136,No,No,10.769646,106.690788
2_1,3,Q1 147,Nhà thờ Huyện Sỹ,Đang khai thác,Trụ dừng,Nguyễn Trãi,206Bis,No,No,10.767692,106.688591
2_1,3,Q1 006,Chợ Thái Bình,Đang khai thác,Trụ dừng,Cống Quỳnh,244,No,No,10.766943,106.687793
2_1,3,Q3 072,Hội Chữ thập đỏ thành phố,Đang khai thác,Nhà chờ,Nguyễn Thị Minh Khai,464 - 466,No,No,10.767691,106.683693
2_1,3,Q3 073,Nhà sách Minh Khai,Đang khai thác,Trụ dừng,Nguyễn Thị Minh Khai,488,No,No,10.766416,106.682428
2_1,3,Q3 074,Chợ Bàn Cờ,Đang khai thác,Trụ dừng,Nguyễn Thiện Thuật,80 - 82,No,No,10.767718,106.680321
2_1,3,Q3 021,Cao Thắng,Đang khai thác,Biển treo,Điện Biên Phủ,503,No,No,10.771249,106.677505
2_1,3,Q10 089,Cao Thắng,Đang khai thác,Trụ dừng,Cao Thắng,156,No,No,10.773362,106.67836
2_1,3,Q10 003,Học viện hành chính quốc gia,Đang khai thác,Nhà chờ,Đường 3/2,10,No,No,10.773457,106.676951
2_1,3,Q10 004,Học viện hành chính quốc gia,Đang khai thác,Nhà chờ,Đường 3/2,Kế 10A,No,No,10.772661,106.675701
2_1,3,Q10 005,Nhà hát Hòa Bình,Đang khai thác,Nhà chờ,Đường 3/2,240,No,No,10.771712,106.674202
2_1,3,Q10 006,Nhà thờ Vinh Sơn,Đang khai thác,Trụ dừng,Đường 3/2,270,No,No,10.770521,106.67215
2_1,3,Q10 007,Bệnh viện nhi đồng,Đang khai thác,Trụ dừng,Đường 3/2,356,No,No,10.769578,106.670364
2_1,3,Q10 008,Nguyễn Kim,Đang khai thác,Trụ dừng,Đường 3/2,626-628,No,No,10.764972,106.661743
2_1,3,Q11 001,Nhà sách Phú Thọ,Đang khai thác,Nhà chờ,Đường 3/2,940 (6B),No,No,10.763115,106.658409
2_1,3,Q11 002,Lãnh Binh Thăng,Đang khai thác,Trụ dừng,Đường 3/2,970,No,No,10.761842,106.65603
2_1,3,Q11 003,Chợ Thiết,Đang khai thác,Trụ dừng,Đường 3/2,1114A-1116A,No,No,10.760535,106.653557
2_1,3,Q11 004,Xóm Đất,Đang khai thác,Nhà chờ,Đường 3/2,1196,No,No,10.758648,106.650156
2_1,3,Q11 005,Đội Giao Thông Phú Lâm,Đang khai thác,Trụ dừng,Đường 3/2,1274,No,No,10.757357,106.647838
2_1,3,Q11 006,Chùa Phụng Sơn,Đang khai thác,Trụ dừng,Đường 3/2,1354,No,No,10.756348,106.646034
2_1,3,Q11 007,Trường Nguyễn Thi,Đang khai thác,Ô sơn,Đường 3/2,1456,No,No,10.755207,106.643858
2_1,3,Q6 061,Cây Gõ,Đang khai thác,Trụ dừng,Minh Phụng,201,No,No,10.753264,106.642929
2_1,3,Q6 062,Chợ Minh Phụng,Đang khai thác,Trụ dừng,Minh Phụng,101,No,No,10.750922,106.642495
2_1,3,Q6 025,Cầu Hậu Giang,Đang khai thác,Trụ dừng,Hậu Giang,212A,No,No,10.749736,106.641503
2_1,3,Q6 026,Chợ Hoa,Đang khai thác,Trụ dừng,Hậu Giang,460-462,No,No,10.748714,106.637437
2_1,3,Q6 027,Nguyễn Văn Luông,Đang khai thác,Trụ dừng,Hậu Giang,620-622,No,No,10.748039,106.634663
2_1,3,Q6 028,Bình Phú,Đang khai thác,Biển treo,Hậu Giang,730-732,No,No,10.747697,106.633312
2_1,3,Q6 029,Đồng Quê,Đang khai thác,Biển treo,Hậu Giang,910,No,No,10.746511,106.628382
2_1,3,Q6 030,Mũi Tàu Phú Lâm,Đang khai thác,Trụ dừng,Hậu Giang,1054,No,No,10.745536,106.624686
2_1,3,QBT 011,Dương Tự Quản,Đang khai thác,Trụ dừng,Kinh Dương Vương,212-214,No,No,10.744746,106.622475
2_1,3,QBT 012,Chợ An Lạc,Đang khai thác,Trụ dừng,Kinh Dương Vương,358-360,No,No,10.741973,106.619096
2_1,3,QBT 013,"428, Kinh Dương Vương",Đã hủy,Ô sơn,Kinh Dương Vương,428,No,No,10.741383,106.618377
2_1,3,BX 46,Bến xe Miền Tây,Đang khai thác,Bến xe,Kinh Dương Vương,Bến xe Miền Tây,Yes,Yes,10.740705,106.618317
2_1,4,BX 46,Bến xe Miền Tây,Đang khai thác,Bến xe,Kinh Dương Vương,Bến xe Miền Tây,Yes,Yes,10.740705,106.618317
2_1,4,QBT 009,"49-51 (317), Kinh Dương Vương",Chưa khai thác,Ô sơn,Kinh Dương Vương,49-51 (317),No,No,10.743396,106.62136
2_1,4,QBT 010,Dương Tự Quản,Đang khai thác,Trụ dừng,Kinh Dương Vương,7,No,No,10.744919,106.623162
2_1,4,Q6 031,Mũi Tàu Phú Lâm,Đang khai thác,Biển treo,Hậu Giang,1031C,No,No,10.745362,106.624466
2_1,4,Q6 032,Đồng Quê,Đang khai thác,Biển treo,Hậu Giang,919,No,No,10.746311,106.628092
2_1,4,Q6 033,Bình Phú,Đang khai thác,Biển treo,Hậu Giang,733-735,No,No,10.747623,106.633526
2_1,4,Q6 034,Nguyễn Văn Luông,Đang khai thác,Ô sơn,Hậu Giang,517-519,No,No,10.74826,106.636192
2_1,4,Q6 035,Chợ Hoa,Đang khai thác,Trụ dừng,Hậu Giang,411,No,No,10.748814,106.638359
2_1,4,Q6 059,Chợ Minh Phụng,Đang khai thác,Ô sơn,Minh Phụng,122,No,No,10.750869,106.642619
2_1,4,Q6 060,Cây Gõ,Đang khai thác,Trụ dừng,Minh Phụng,242,No,No,10.753468,106.643096
2_1,4,Q11 008,Trường Nguyễn Thi,Đang khai thác,Trụ dừng,Đường 3/2,1559,No,No,10.755201,106.644314
2_1,4,Q11 009,Chùa Phụng Sơn,Đang khai thác,Trụ dừng,Đường 3/2,1479,No,No,10.756082,106.645993
2_1,4,Q11 010,Hàn Hải Nguyên,Đang khai thác,Trụ dừng,Đường 3/2,1375,No,No,10.757257,106.648171
2_1,4,Q11 011,Xóm Đất,Đang khai thác,Trụ dừng,Đường 3/2,1293,No,No,10.758469,106.650301
2_1,4,Q11 012,"Công an P12, Q11",Đang khai thác,Trụ dừng,Đường 3/2,1231,No,No,10.759454,106.652108
2_1,4,Q11 013,Chợ Thiết,Đang khai thác,Trụ dừng,Đường 3/2,1163,No,No,10.760371,106.653763
2_1,4,Q11 014,Lê Đại Hành,Đang khai thác,Trụ dừng,Đường 3/2,1007 (1029),No,No,10.761562,106.656006
2_1,4,Q11 015,Trung tâm chăm sóc sức khỏe sinh sản,Đang khai thác,Nhà chờ,Đường 3/2,957,No,No,10.76245,106.657539
2_1,4,Q10 009,Nguyễn Kim,Đang khai thác,Trụ dừng,Đường 3/2,781,No,No,10.76434,106.661078
2_1,4,Q10 010,Nhà thờ tin lành Nguyễn Tri Phương,Đang khai thác,Trụ dừng,Đường 3/2,635,No,No,10.766232,106.664627
2_1,4,Q10 011,Bệnh viện nhi đồng,Đang khai thác,Nhà chờ,Đường 3/2,Đối diện 350,No,No,10.769518,106.670609
2_1,4,Q10 012,Nhà thờ Vinh Sơn,Đang khai thác,Trụ dừng,Đường 3/2,273-275,No,No,10.770269,106.672166
2_1,4,Q10 013,Nhà hát Hòa Bình,Đang khai thác,Trụ dừng,Đường 3/2,183A-183B,No,No,10.771855,106.674805
2_1,4,Q10 014,Học viện hành chính quốc gia,Đang khai thác,Trụ dừng,Đường 3/2,113,No,No,10.77323,106.677015
2_1,4,Q3 018,Rạp Đại Đồng,Đang khai thác,Nhà chờ,Cao Thắng,75,No,No,10.77182,106.679947
2_1,4,Q3 019,Nguyễn Đình Chiểu,Đang khai thác,Trụ dừng,Cao Thắng,31,No,No,10.769566,106.682526
2_1,4,Q1 007,Chợ Thái Bình,Đang khai thác,Trụ dừng,Cống Quỳnh,A43,No,No,10.766863,106.687653
2_1,4,Q1 041,Tôn Thất Tùng,Đang khai thác,Nhà chờ,Lê Lai,Đối diện 204,No,No,10.768651,106.690555
2_1,4,Q1 042,Nguyễn Thị Nghĩa,Đang khai thác,Nhà chờ,Lê Lai,Đối diện 96,No,No,10.769778,106.693436
2_1,4,Q1 043,Khách sạn New world,Đang khai thác,Nhà chờ,Lê Lai,Đối diện 1A Phạm Hồng Thái,No,No,10.77107,106.696714
2_1,4,Q1TC1E,Bến Thành E,Đang khai thác,Bến xe,Phạm Ngũ Lão,Bến Thành,Yes,Yes,10.77054,106.698448
2_1,4,Q1 015,Hàm Nghi,Đang khai thác,Nhà chờ,Hàm Nghi,163,No,No,10.770943,106.699562
2_1,4,Q1 016,Chợ Củ,Đang khai thác,Nhà chờ,Hàm Nghi,89A,No,No,10.770822,106.70196
2_1,4,Q1 017,Hồ Tùng Mậu,Đang khai thác,Nhà chờ,Hàm Nghi,67,No,No,10.770722,106.704074
2_1,4,Q1 024,Bến Bạch Đằng,Đang khai thác,Nhà chờ,Tôn Đức Thắng,Bến thủy nội địa Thủ Thiêm,No,No,10.773878,106.706648
2_1,4,Q1 057,Công Trường Mê Linh,Đang khai thác,Trụ dừng,Hai Bà Trưng,2,No,No,10.776048,106.705719
2_1,4,BX 07,Công Trường Mê Linh,Đang khai thác,Bến xe,Đông Du,CÔNG TRƯỜNG MÊ LINH,Yes,Yes,10.776809,106.705429
8_1,15,BX 20,Bến xe Quận 8,Đang khai thác,Bến xe,Quốc lộ 50,GA HKXB QUẬN 8,Yes,Yes,10.733545,106.656357
8_1,15,Q8 073,Bùi Minh Trực,Đang khai thác,Ô sơn,Quốc lộ 50,193,No,No,10.73646,106.656346
8_1,15,Q8 074,Cầu Nhị Thiên Đường,Đang khai thác,Ô sơn,Quốc lộ 50,81,No,No,10.738769,106.656427
8_1,15,Q8 111,Tùng Thiện Vương,Đang khai thác,Trụ dừng,Tùng Thiện Vương,487,No,No,10.744513,106.656802
8_1,15,Q8 112,Chợ Xóm Củi,Đang khai thác,Trụ dừng,Tùng Thiện Vương,337,No,No,10.746073,106.659763
8_1,15,Q5 011,Bưu điện Quận 5,Đang khai thác,Biển treo,Châu Văn Liêm,14-16,No,No,10.751368,106.659203
8_1,15,Q5 012,Rạp Đại Quang,Đang khai thác,Nhà chờ,Châu Văn Liêm,68,No,No,10.752566,106.658937
8_1,15,Q5 025,Bệnh viện Chợ Rẫy,Đang khai thác,Trụ dừng,Hồng Bàng,357-359,No,No,10.754553,106.659232
8_1,15,Q5 033,Hùng Vương Plaza,Đang khai thác,Nhà chờ,Lý Thường Kiệt,4,No,No,10.756013,106.662333
8_1,15,Q10 051,Coop mart Lý Thường Kệt,Đang khai thác,Nhà chờ,Lý Thường Kiệt,Coop mart,No,No,10.759602,106.661351
8_1,15,Q10 052,Điện Lực Phú Thọ,Đang khai thác,Trụ dừng,Lý Thường Kiệt,192,No,No,10.76523,106.659763
8_1,15,Q10 053,Nhà thi đấu Phú Thọ,Đang khai thác,Nhà chờ,Lý Thường Kiệt,260,No,No,10.767367,106.659065
8_1,15,Q10 054,Bệnh viện Trưng Vương,Đang khai thác,Trụ dừng,Lý Thường Kiệt,BV Trưng Vương,No,No,10.769652,106.658524
8_1,15,Q10 055,Đại Học Bách Khoa,Đang khai thác,Nhà chờ,Lý Thường Kiệt,268,No,No,10.772603,106.657698
8_1,15,Q10 056,Bưu Điện Phú Thọ,Đang khai thác,Nhà chờ,Lý Thường Kiệt,270Bis,No,No,10.776487,106.656625
8_1,15,QTB 023,Ngã ba Thành Thái,Đang khai thác,Nhà chờ,Lý Thường Kiệt,270,No,No,10.778974,106.655896
8_1,15,QTB 024,Siêu thị Nguyễn Kim - CMC Tân Bình,Đang khai thác,Trụ dừng,Lý Thường Kiệt,320 (Quận đoàn Tân Bình),No,No,10.781072,106.65529
8_1,15,QTB 025,Trạm Cây xăng số 9,Đang khai thác,Nhà chờ,Lý Thường Kiệt,151A,No,No,10.784002,106.654431
8_1,15,QTB 026,Chợ Tân Bình,Đang khai thác,Trụ dừng,Lý Thường Kiệt,470,No,No,10.786222,106.653786
8_1,15,QTB 027,Bệnh viện chỉnh hình và Phục hồi chức năng,Đang khai thác,Nhà chờ,Lý Thường Kiệt,1A (Trung tâm phục hồi người tàn tật),No,No,10.788689,106.653076
8_1,15,QTB 028,Bệnh viện Thống Nhất,Đang khai thác,Nhà chờ,Lý Thường Kiệt,Bệnh viện Thống Nhất,No,No,10.792101,106.653074
8_1,15,QTB 034,Hội Chợ Triển lãm Tân Bình,Đang khai thác,Nhà chờ,Hoàng Văn Thụ,605 (Bệnh viện Tân Bình),No,No,10.79472,106.655198
8_1,15,QTB 035,Nhà hàng Đông Phương,Đang khai thác,Nhà chờ,Hoàng Văn Thụ,431,No,No,10.798556,106.659216
8_1,15,QTB 036,Phạm Văn Hai,Đang khai thác,Nhà chờ,Hoàng Văn Thụ,259,No,No,10.800469,106.663578
8_1,15,QTB 037,Trạm Bảo Tàng Miền Đông,Đang khai thác,Nhà chờ,Hoàng Văn Thụ,247,No,No,10.800237,106.666372
8_1,15,QPN 006,Siêu Thị Big C,Đang khai thác,Trụ dừng,Hoàng Văn Thụ,241,No,No,10.799942,106.669462
8_1,15,QPN 007,Khách Sạn Tân Sơn Nhất,Đang khai thác,Trụ dừng,Hoàng Văn Thụ,217,No,No,10.799805,106.670873
8_1,15,QPN 008,Công an Phú Nhuận,Đang khai thác,Trụ dừng,Hoàng Văn Thụ,189,No,No,10.799542,106.673818
8_1,15,QPN 009,Ngã Tư Phú Nhuận,Đang khai thác,Trụ dừng,Hoàng Văn Thụ,59,No,No,10.799088,106.679354
8_1,15,QPN 015,Ngã tư Phan Xích Long,Đang khai thác,Trụ dừng,Phan Đăng Lưu,171,No,No,10.800416,106.681741
8_1,15,QPN 016,Ngã Tư Thích Quảng Đức,Đang khai thác,Trụ dừng,Phan Đăng Lưu,141 - 143,No,No,10.802287,106.683689
8_1,15,QPN 017,Đại học Văn Hiến,Đang khai thác,Trụ dừng,Phan Đăng Lưu,109,No,No,10.803847,106.686108
8_1,15,QPN 018,Bệnh Viện Phước An,Đang khai thác,Trụ dừng,Phan Đăng Lưu,81 - 83,No,No,10.803615,106.687916
8_1,15,QBTH 113,Công an PCCC,Đang khai thác,Trụ dừng,Phan Đăng Lưu,45,No,No,10.803188,106.691371
8_1,15,QBTH 114,Lăng Ông Bà Chiểu,Đang khai thác,Nhà chờ,Phan Đăng Lưu,1,No,No,10.802408,106.697159
8_1,15,QBTH 006,Chợ Bà Chiểu,Đang khai thác,Trụ dừng,Bạch Đằng,473C,No,No,10.802893,106.699471
8_1,15,QBTH 007,Tòa Án nhân dân Quận Bình Thạnh,Đang khai thác,Trụ dừng,Bạch Đằng,449,No,No,10.803615,106.701204
8_1,15,QBTH 008,Chùa Bồ Đề,Đang khai thác,Trụ dừng,Bạch Đằng,375,No,No,10.803293,106.703988
8_1,15,QBTH 009,Nhà thờ Hàng Xanh,Đang khai thác,Trụ dừng,Bạch Đằng,235,No,No,10.803077,106.706713
8_1,15,QBTH 010,Chợ Hàng Xanh,Đang khai thác,Trụ dừng,Bạch Đằng,39,No,No,10.802793,106.710511
8_1,15,QBTH 123,Ngã Ba Hàng Xanh,Đang khai thác,Biển treo,Xô Viết Nghệ Tĩnh,338,No,No,10.803262,106.711509
8_1,15,QBTH 122,Đài Liệt sĩ,Đang khai thác,Biển treo,Xô Viết Nghệ Tĩnh,504,No,No,10.808831,106.711965
8_1,15,QBTH 135,Siêu thị Coop Mart,Đang khai thác,Trụ dừng,Quốc lộ 13,222/13A,No,No,10.810791,106.71241
8_1,15,QBTH 136,Cổng ra - Bến xe Miền Đông 3,Đang khai thác,Trụ dừng,Quốc lộ 13,100-102,No,No,10.811666,106.712532
8_1,15,QTD 118,Ngã tư Bình Triệu,Đang khai thác,Ô sơn,Phạm Văn Đồng,54,No,No,10.82603,106.715655
8_1,15,QTD 119,Đường số 20,Đang khai thác,Nhà chờ,Phạm Văn Đồng,Đối diện 216,No,No,10.827878,106.721032
8_1,15,QTD 120,Chùa Ưu Đàm,Đang khai thác,Nhà chờ,Phạm Văn Đồng,Khu dân cư Opal Tower,No,No,10.830679,106.72476
8_1,15,QTD 121,Cá sấu Hoa cà,Đang khai thác,Nhà chờ,Phạm Văn Đồng,Đối diện Cá sấu Hoa Cà,No,No,10.833606,106.728331
8_1,15,QTD 122,THCS Ngô Chí Quốc,Đang khai thác,Nhà chờ,Phạm Văn Đồng,412,No,No,10.83555,106.730713
8_1,15,QTD 123,Chợ Hiệp Bình,Đang khai thác,Nhà chờ,Phạm Văn Đồng,Chùa Vân Sơn,No,No,10.837484,106.733288
8_1,15,QTD 124,Cầu Gò Dưa,Đang khai thác,Nhà chờ,Phạm Văn Đồng,Trụ chiếu sáng C185,No,No,10.839776,106.740509
8_1,15,QTD 126,Trường Cao đẳng Vinatex,Đang khai thác,Ô sơn,Kha Vạn Cân,580,No,No,10.840767,106.744022
8_1,15,QTD 127,Trạm xăng 27-7,Đang khai thác,Ô sơn,Kha Vạn Cân,624,No,No,10.84129,106.746346
8_1,15,QTD 128,Công an phường Linh Đông,Đang khai thác,Ô sơn,Kha Vạn Cân,684,No,No,10.844781,106.74966
8_1,15,QTD 129,Trạm Cầu Ngang,Đang khai thác,Trụ dừng,Kha Vạn Cân,742,No,No,10.847416,106.75209
8_1,15,QTD 130,Chợ Thủ Đức,Đang khai thác,Ô sơn,Kha Vạn Cân,996,No,No,10.850158,106.754372
8_1,15,QTD 070,Ngã ba Chương Dương,Đang khai thác,Ô sơn,Võ Văn Ngân,120,No,No,10.850419,106.760931
8_1,15,QTD 071,Cao đẳng xây dựng 2,Đang khai thác,Trụ dừng,Võ Văn Ngân,190,No,No,10.85065,106.764439
8_1,15,QTD 072,Siêu thị Nguyễn Kim,Đang khai thác,Ô sơn,Võ Văn Ngân,274-276,No,No,10.849686,106.769112
8_1,15,QTD 073,Trường ĐHSP Kỹ Thuật,Đang khai thác,Trụ dừng,Võ Văn Ngân,368,No,No,10.849597,106.771917
8_1,15,Q9 218,Công an Quận 9,Đang khai thác,Nhà chờ,Xa Lộ Hà Nội,Công an Quận 9,No,No,10.849966,106.775066
8_1,15,Q9 219,Chợ chiều,Đang khai thác,Nhà chờ,Xa Lộ Hà Nội,Kế 830 (Chợ Chiều),No,No,10.853511,106.780474
8_1,15,Q9 220,Khu Công nghệ cao quận 9,Đang khai thác,Nhà chờ,Xa Lộ Hà Nội,Khu công nghệ cao,No,No,10.858511,106.788869
8_1,15,Q9 221,Cầu Vượt Trạm 2,Đang khai thác,Nhà chờ,Quốc lộ 1,Tiệm vàng Kim Lợi,No,No,10.863595,106.797538
8_1,15,Q9 223,Suối Tiên,Đang khai thác,Trụ dừng,Quốc lộ 1,Suối Tiên,No,No,10.866498,106.802377
8_1,15,BX87,Đại học Quốc gia,Đang khai thác,Bến xe,Đường nội bộ Đại học Quốc gia,Bến xe buýt Khu A Đô thị Quốc gia,Yes,Yes,10.873805046082,106.80202484131
8_1,16,BX87,Đại học Quốc gia,Đang khai thác,Bến xe,Đường nội bộ Đại học Quốc gia,Bến xe buýt Khu A Đô thị Quốc gia,Yes,Yes,10.873805046082,106.80202484131
8_1,16,QTD 175,621-Ngã 3 Lâm Viên,Đang khai thác,Trụ dừng,Quốc lộ 1,Nhà máy Tiến Thành,No,No,10.871128,106.806979
8_1,16,QTD 176,Trường giáo dục Quốc phòng,Đang khai thác,Trụ dừng,Quốc lộ 1,Trường giáo dục Quốc phòng,No,No,10.868216,106.804367
8_1,16,QTD 177,Khu DL Suối Tiên,Đang khai thác,Trụ dừng,Quốc lộ 1,9/29,No,No,10.86605,106.801116
8_1,16,QTD 197,Câu vượt Trạm 2,Đang khai thác,Ô sơn,Quốc lộ 1,Câu vượt Trạm 2,No,No,10.8639,106.797318
8_1,16,QTD 074,Khu Công nghệ cao Q9,Đang khai thác,Trụ dừng,Xa Lộ Hà Nội,Đối diện Khu công nghệ cao,No,No,10.860545,106.791723
8_1,16,QTD 076,Công ty Cocacola,Đang khai thác,Trụ dừng,Xa Lộ Hà Nội,Công ty Cocacola,No,No,10.856483,106.784964
8_1,16,QTD 065,Trường Đại học Sư phạm Kỹ thuật,Đang khai thác,Nhà chờ,Võ Văn Ngân,1,No,No,10.849823,106.772089
8_1,16,QTD 066,Siêu thị Nguyễn Kim,Đang khai thác,Ô sơn,Võ Văn Ngân,312,No,No,10.849805,106.768837
8_1,16,QTD 067,Nhà thiếu nhi Thủ Đức,Đang khai thác,Nhà chờ,Võ Văn Ngân,Nhà thiếu nhi,No,No,10.850556,106.766794
8_1,16,QTD 068,Trường Lê Quý Đôn,Đang khai thác,Trụ dừng,Võ Văn Ngân,231,No,No,10.850808,106.764101
8_1,16,QTD 069,Ngã ba Chương Dương,Đang khai thác,Trụ dừng,Võ Văn Ngân,Đối diện 100,No,No,10.850645,106.760201
8_1,16,QTD 145,Chợ Thủ Đức,Đang khai thác,Ô sơn,Lê Văn Ninh,20-21,No,No,10.850327,106.754005
8_1,16,QTD 146,Trạm Cầu ngang,Đang khai thác,Biển treo,Kha Vạn Cân,581,No,No,10.847199,106.751587
8_1,16,QTD 147,Công an Phường Linh Đông,Đang khai thác,Biển treo,Kha Vạn Cân,517,No,No,10.845116,106.749763
8_1,16,QTD 148,Trạm xăng 27-7,Đang khai thác,Biển treo,Kha Vạn Cân,Đối diện 624,No,No,10.841721,106.74659
8_1,16,QTD 149,Trường Cao đẳng Vinatex,Đang khai thác,Biển treo,Kha Vạn Cân,403,No,No,10.840851,106.744548
8_1,16,QTD 153,Nút giao Linh Đông -PVĐ,Đang khai thác,Nhà chờ,Phạm Văn Đồng,Trụ chiếu sáng A226,No,No,10.84077,106.742682
8_1,16,QTD 154,Chợ Hiệp Bình,Đang khai thác,Nhà chờ,Phạm Văn Đồng,Ngã tư Hiệp Bình - PVĐ,No,No,10.837284,106.732328
8_1,16,QTD 155,Cá sấu Hoa Cà,Đang khai thác,Nhà chờ,Phạm Văn Đồng,Trụ chiếu sáng B194,No,No,10.833634,106.727916
8_1,16,QTD 156,Đường số 20,Đang khai thác,Nhà chờ,Phạm Văn Đồng,218,No,No,10.828232,106.720988
8_1,16,QTD 157,Ngã tư Bình Triệu,Đang khai thác,Ô sơn,Phạm Văn Đồng,599,No,No,10.826557,106.715848
8_1,16,QBTH 038,Cổng vào-Bến xe Miền Đông,Đang khai thác,Nhà chờ,Đinh Bộ Lĩnh,78/3,No,No,10.816661,106.711257
8_1,16,QBTH 039,Ngã Tư Nguyễn Xí,Đang khai thác,Ô sơn,Đinh Bộ Lĩnh,291-293,No,No,10.812625,106.709223
8_1,16,QBTH 040,Ngã Tư Chu Văn An,Đang khai thác,Trụ dừng,Đinh Bộ Lĩnh,183,No,No,10.809759,106.709143
8_1,16,QBTH 041,Cầu Đinh Bộ Lĩnh,Đang khai thác,Trụ dừng,Đinh Bộ Lĩnh,85,No,No,10.806908,106.709341
8_1,16,QBTH 042,Trạm xăng dầu,Đang khai thác,Trụ dừng,Đinh Bộ Lĩnh,17,No,No,10.804421,106.709395
8_1,16,QBTH 002,Nhà thờ Hàng Xanh,Đang khai thác,Trụ dừng,Bạch Đằng,96,No,No,10.803177,106.708032
8_1,16,QBTH 003,Chùa Bồ Đề,Đang khai thác,Trụ dừng,Bạch Đằng,246,No,No,10.803483,106.704015
8_1,16,QBTH 004,Tòa Án nhân dân Quận Bình Thạnh,Đang khai thác,Trụ dừng,Bạch Đằng,288,No,No,10.803873,106.701187
8_1,16,QBTH 005,Chợ Bà Chiểu,Đang khai thác,Trụ dừng,Bạch Đằng,368,No,No,10.803125,106.699374
8_1,16,QBTH 115,UBND Quận Bình Thạnh,Đang khai thác,Trụ dừng,Phan Đăng Lưu,6-8,No,No,10.802819,106.695786
8_1,16,QBTH 116,Bệnh Viện Gia Định,Đang khai thác,Nhà chờ,Phan Đăng Lưu,10,No,No,10.803119,106.693543
8_1,16,QBTH 117,PCCC quận Bình Thạnh,Đang khai thác,Nhà chờ,Phan Đăng Lưu,14-16,No,No,10.803362,106.691741
8_1,16,QPN 019,Bệnh viện Phước An,Đang khai thác,Trụ dừng,Phan Đăng Lưu,36A,No,No,10.803878,106.687637
8_1,16,QPN 020,Đại học Văn Hiến,Đang khai thác,Trụ dừng,Phan Đăng Lưu,68,No,No,10.804078,106.686119
8_1,16,QPN 021,Ngã Tư Thích Quảng Đức,Đang khai thác,Trụ dừng,Phan Đăng Lưu,124,No,No,10.802529,106.683608
8_1,16,QPN 022,Ngã tư Phan Xích Long,Đang khai thác,Trụ dừng,Phan Đăng Lưu,172,No,No,10.80088,106.681892
8_1,16,QPN 010,Ngã Tư Phú Nhuận,Đang khai thác,Trụ dừng,Hoàng Văn Thụ,24,No,No,10.799325,106.679236
8_1,16,QPN 011,Siêu Thị Big C,Đang khai thác,Nhà chờ,Hoàng Văn Thụ,202,No,No,10.800153,106.669559
8_1,16,QTB 099,Cổng trước SVĐ Quân Khu 7,Đang khai thác,Nhà chờ,Phan Đình Giót,A2 (Sân vận động Quân khu 7),No,No,10.800848,106.66678
8_1,16,QTB 108,Công viên Hoàng Văn Thụ,Đang khai thác,Nhà chờ,Phan Thúc Duyện,Công viên Hoàng Văn Thụ,No,No,10.802403,106.664221
8_1,16,QTB 107,Lăng Cha Cả,Đang khai thác,Nhà chờ,Trần Quốc Hoàn,20,No,No,10.801365,106.662312
8_1,16,QTB 038,Lăng Cha Cả,Đang khai thác,Trụ dừng,Hoàng Văn Thụ,216,No,No,10.7999,106.660321
8_1,16,QTB 039,Công an Quận Tân Bình,Đang khai thác,Trụ dừng,Hoàng Văn Thụ,340H,No,No,10.79717,106.657425
8_1,16,QTB 064,Hội Chợ Triển lãm Tân Bình,Đang khai thác,Trụ dừng,Xuân Diệu,20 (B9),No,No,10.796122,106.655145
8_1,16,QTB 065,Trường Phạm Ngũ Lão,Đang khai thác,Trụ dừng,Xuân Hồng,149 (E62),No,No,10.796032,106.654066
8_1,16,QTB 066,Cây xăng dầu,Đang khai thác,Trụ dừng,Xuân Hồng,23,No,No,10.794256,106.652184
8_1,16,QTB 029,Bệnh viện Thống Nhất,Đang khai thác,Trụ dừng,Lý Thường Kiệt,733-739,No,No,10.792122,106.6528
8_1,16,QTB 030,Bệnh viện chỉnh hình và phục hồi chức năng,Đang khai thác,Trụ dừng,Lý Thường Kiệt,589,No,No,10.788718,106.652806
8_1,16,QTB 031,Chợ Tân Bình,Đang khai thác,Nhà chờ,Lý Thường Kiệt,Chợ Tân Bình,No,No,10.786131,106.653584
8_1,16,QTB 032,Siêu thị Nguyễn Kim - CMC Tân Bình,Đang khai thác,Nhà chờ,Lý Thường Kiệt,79B (siêu thị CMC Tân Bình),No,No,10.782695,106.654571
8_1,16,QTB 033,Trường Nguyễn Thái Bình,Đang khai thác,Trụ dừng,Lý Thường Kiệt,349 (74),No,No,10.779233,106.655609
8_1,16,Q11 016,Bưu Điện Phú Thọ,Đang khai thác,Nhà chờ,Lý Thường Kiệt,285A,No,No,10.775314,106.656693
8_1,16,Q11 017,Đại Học Bách Khoa(cổng trước),Đang khai thác,Trụ dừng,Lý Thường Kiệt,239,No,No,10.771331,106.657829
8_1,16,Q11 018,BV Trưng Vương,Đang khai thác,Nhà chờ,Lý Thường Kiệt,Đối diện 266,No,No,10.769639,106.658295
8_1,16,Q11 019,Điện Lực Phú Thọ,Đang khai thác,Nhà chờ,Lý Thường Kiệt,215C,No,No,10.765792,106.659363
8_1,16,Q11 020,Chợ Nhật Tảo,Đang khai thác,Nhà chờ,Lý Thường Kiệt,151,No,No,10.761718,106.660484
8_1,16,Q5 034,Bệnh viện Hùng Vương,Đang khai thác,Nhà chờ,Lý Thường Kiệt,Hông Bệnh viện Hùng Vương,No,No,10.755702,106.66221
8_1,16,Q5 018,Bệnh viện Hùng Vương,Đang khai thác,Nhà chờ,Hồng Bàng,132,No,No,10.755196,106.661072
8_1,16,Q5 019,Bệnh viện Chợ Rẫy,Đang khai thác,Trụ dừng,Hồng Bàng,172,No,No,10.754875,106.659501
8_1,16,Q5 013,Rạp Đại Quang,Đang khai thác,Nhà chờ,Châu Văn Liêm,81,No,No,10.752445,106.658792
8_1,16,Q5 014,Bưu điện Quận 5,Đang khai thác,Biển treo,Châu Văn Liêm,13-15,No,No,10.751381,106.658894
8_1,16,Q8 110,Tùng Thiện Vương,Đang khai thác,Trụ dừng,Tùng Thiện Vương,388,No,No,10.74483,106.656926
8_1,16,Q8 069,Chùa Pháp Quang,Đang khai thác,Ô sơn,Quốc lộ 50,100,No,No,10.738642,106.656142
8_1,16,Q8 070,Bùi Minh Trực,Đang khai thác,Ô sơn,Quốc lộ 50,224,No,No,10.73646,106.656126
8_1,16,BX 20,Bến xe Quận 8,Đang khai thác,Bến xe,Quốc lộ 50,GA HKXB QUẬN 8,Yes,Yes,10.733545,106.656357
1_1,1,BX 06,Công Trường Mê Linh,Đang khai thác,Bến xe,Thi Sách,Công trường Mê Linh,Yes,Yes,10.77679,106.705856
1_1,1,Q1 031,Bến Bạch Đằng,Đang khai thác,Trụ dừng,Tôn Đức Thắng,21,No,No,10.773299,106.706359
1_1,1,Q1 020,Cục Hải Quan Thành Phố,Đang khai thác,Nhà chờ,Hàm Nghi,2-4,No,No,10.770885,106.705549
1_1,1,Q1 021,Chợ Cũ,Đang khai thác,Nhà chờ,Hàm Nghi,84,No,No,10.77098,106.703027
1_1,1,Q1 022,Trường Cao Thắng,Đang khai thác,Nhà chờ,Hàm Nghi,122,No,No,10.771054,106.701676
1_1,1,Q1 023,Công ty Đường sắt,Đang khai thác,Nhà chờ,Hàm Nghi,136,No,No,10.771163,106.699356
1_1,1,Q1TC1B,Bến Thành B,Đang khai thác,Bến xe,Phạm Ngũ Lão,Bến Thành,Yes,Yes,10.77084,106.698532
1_1,1,Q1 124,Trường Ernst Thalmann,Đang khai thác,Nhà chờ,Trần Hưng Đạo,8,No,No,10.768772,106.695923
1_1,1,Q1 125,KTX Trần Hưng Đạo,Đang khai thác,Nhà chờ,Trần Hưng Đạo,10,No,No,10.767363,106.694695
1_1,1,Q1 126,Rạp Hưng Đạo,Đang khai thác,Nhà chờ,Trần Hưng Đạo,112,No,No,10.765832,106.693375
1_1,1,Q1 127,Bệnh viện Răng Hàm Mặt,Đang khai thác,Nhà chờ,Trần Hưng Đạo,150,No,No,10.763918,106.691696
1_1,1,Q1 128,Trần Đình Xu,Đang khai thác,Trụ dừng,Trần Hưng Đạo,210 - 212,No,No,10.762262,106.690247
1_1,1,Q1 129,Tổng Cty Samco,Đang khai thác,Nhà chờ,Trần Hưng Đạo,262,No,No,10.759409,106.687798
1_1,1,Q1 130,Chợ Nanci,Đang khai thác,Trụ dừng,Trần Hưng Đạo,290,No,No,10.757467,106.686035
1_1,1,Q5 083,Nguyễn Biểu,Đang khai thác,Trụ dừng,Trần Hưng Đạo,454,No,No,10.755887,106.68283
1_1,1,Q5 084,Trường Cao đẳng Kinh tế Đối ngoại,Đang khai thác,Nhà chờ,Trần Hưng Đạo,520,No,No,10.755623,106.681833
1_1,1,Q5 085,Trần Bình Trọng,Đang khai thác,Trụ dừng,Trần Hưng Đạo,564,No,No,10.755064,106.679794
1_1,1,Q5 086,Bệnh viện Chấn thương Chỉnh hình,Đang khai thác,Nhà chờ,Trần Hưng Đạo,696,No,No,10.754537,106.677847
1_1,1,Q5 087,Rạp Đồng Tháp,Đang khai thác,Trụ dừng,Trần Hưng Đạo,780,No,No,10.753984,106.675825
